id,developer_id,name,name_eng,region,region_city,district_direction,atd,zone,lat,lng
529,1,О7,,Москва,Очаково-Матвеевское,ЗАО,ЗАО,3) от ~ТТК до МКАД,55.68285,37.46193
533,2,Аквамарин,,Москва,Замоскворечье,ЦАО,ЦАО,1) внутри СК,55.7396,37.6382
534,3,Алые Паруса,,Москва,Щукино,СЗАО,СЗАО,3) от ~ТТК до МКАД,55.809,37.451
535,4,Альбатрос,,Москва,Строгино,СЗАО,СЗАО,3) от ~ТТК до МКАД,55.79335,37.39852
536,5,Английский квартал,,Москва,Замоскворечье,ЦАО,ЦАО,2) от СК до ~ТТК,55.72229,37.61861
539,6,Балтийский квартет,,Москва,Южное Тушино,СЗАО,СЗАО,3) от ~ТТК до МКАД,55.84826,37.41978
540,7,Баркли Парк,Barkli Park,Москва,Мещанский,ЦАО,ЦАО,2) от СК до ~ТТК,55.78679,37.61765
541,7,Баркли Резиденс,Barkli Residence,Москва,Донской,ЮАО,ЮАО,2) от СК до ~ТТК,55.71087,37.60524
542,3,Баррин Хаус,Barrin House,Москва,Хамовники,ЦАО,ЦАО,2) от СК до ~ТТК,55.72989,37.57004
545,8,Богородский (Москва),На Рокоссовского,Москва,Богородское,ВАО,ВАО,3) от ~ТТК до МКАД,55.80997,37.72798
547,9,Бориса Жигуленкова 7-9,,Москва,Соколиная Гора,ВАО,ВАО,3) от ~ТТК до МКАД,55.77566,37.73321
548,10,Булгаков,,Москва,Пресненский,ЦАО,ЦАО,1) внутри СК,55.76476,37.59459
549,11,Вайн Хаус,Wine House,Москва,Замоскворечье,ЦАО,ЦАО,1) внутри СК,55.74063,37.6409
551,12,Велтон Парк,Welton Park,Москва,Хорошево-Мневники,СЗАО,СЗАО,3) от ~ТТК до МКАД,55.77452,37.46936
553,13,Виноградный,,Москва,Измайлово,ВАО,ВАО,3) от ~ТТК до МКАД,55.79403,37.77114
555,14,Город Столиц,,Москва,Пресненский,ЦАО,ЦАО,2) от СК до ~ТТК,55.74687,37.53898
556,14,Город Яхт,,Москва,Войковский,САО,САО,3) от ~ТТК до МКАД,55.83209,37.4851
558,3,Гранд Де-Люкс,Grand De-Luxe,Москва,Хамовники,ЦАО,ЦАО,2) от СК до ~ТТК,55.73519,37.57146
559,15,Даниловская Мануфактура,,Москва,Донской,ЮАО,ЮАО,2) от СК до ~ТТК,55.69991,37.62577
560,16,Дворец на Яузе,,Москва,Таганский,ЦАО,ЦАО,2) от СК до ~ТТК,55.75173,37.66455
561,17,Дирижабль,,Москва,Обручевский,ЮЗАО,ЮЗАО,3) от ~ТТК до МКАД,55.66584,37.54815
562,18,Дом на Гиляровского,,Москва,Мещанский,ЦАО,ЦАО,2) от СК до ~ТТК,55.78559,37.63339
564,19,Дом на Трубецкой,,Москва,Хамовники,ЦАО,ЦАО,2) от СК до ~ТТК,55.7272,37.57565
565,20,Донское подворье,,Москва,Донской,ЮАО,ЮАО,2) от СК до ~ТТК,55.71066,37.5993
572,21,Империя Тауэр,Imperia Tower,Москва,Пресненский,ЦАО,ЦАО,2) от СК до ~ТТК,55.74733,37.54113
573,14,Имперский Дом,,Москва,Якиманка,ЦАО,ЦАО,1) внутри СК,55.73349,37.60997
576,15,Кадашевские палаты,,Москва,Якиманка,ЦАО,ЦАО,1) внутри СК,55.74161,37.62331
578,22,Утесов,,Москва,Хорошево-Мневники,СЗАО,СЗАО,3) от ~ТТК до МКАД,55.76927,37.4939
580,15,Клеркенвел Хаус,Clerkenwell House,Москва,Хамовники,ЦАО,ЦАО,2) от СК до ~ТТК,55.72179,37.57295
581,23,Клубный дом на Смоленском,,Москва,Хамовники,ЦАО,ЦАО,1) внутри СК,55.74277,37.58588
584,24,Кутузовская миля / Триумфальный,,Москва,Фили-Давыдково,ЗАО,ЗАО,3) от ~ТТК до МКАД,55.72512,37.46751
585,25,Лавров 8,,Москва,Таганский,ЦАО,ЦАО,2) от СК до ~ТТК,55.73353,37.66003
589,9,Лечебная 14,,Москва,Соколиная Гора,ВАО,ВАО,3) от ~ТТК до МКАД,55.78947,37.73726
590,11,Литератор,,Москва,Хамовники,ЦАО,ЦАО,2) от СК до ~ТТК,55.73513,37.58382
591,26,Лобачевский,,Москва,Раменки,ЗАО,ЗАО,3) от ~ТТК до МКАД,55.69384,37.4701
593,3,Лосиный остров,,Москва,Богородское,ВАО,ВАО,3) от ~ТТК до МКАД,55.82033,37.70197
603,27,Мельникова 1-3,,Москва,Южнопортовый,ЮВАО,ЮВАО,2) от СК до ~ТТК,55.72582,37.6766
604,28,Арт Хаус,Art House Loft House Лофт Хаус,Москва,Таганский,ЦАО,ЦАО,1) внутри СК,55.7499,37.64954
605,6,Бурденко 3,,Москва,Хамовники,ЦАО,ЦАО,2) от СК до ~ТТК,55.73822,37.57976
608,29,Загорье,,Москва,Бирюлево Восточное,ЮАО,ЮАО,3) от ~ТТК до МКАД,55.57754,37.67579
610,30,Меркурий-Сити,Mercury City,Москва,Пресненский,ЦАО,ЦАО,2) от СК до ~ТТК,55.74784,37.54284
613,31,Мичуринский,,Москва,Раменки,ЗАО,ЗАО,3) от ~ТТК до МКАД,55.70445,37.49656
615,8,Мосфильмовский,,Москва,Раменки,ЗАО,ЗАО,3) от ~ТТК до МКАД,55.70477,37.49495
618,32,Найтсбридж,Knightsbridge,Москва,Хамовники,ЦАО,ЦАО,2) от СК до ~ТТК,55.72188,37.57008
619,33,Некрасовка-Парк,,Москва,Некрасовка,ЮВАО,ЮВАО,4) Москва за МКАД,55.70186,37.92544
622,34,Новоясеневский,,Москва,Ясенево,ЮЗАО,ЮЗАО,3) от ~ТТК до МКАД,55.60915,37.53557
625,35,Новый Арбат 27-29,,Москва,Арбат,ЦАО,ЦАО,2) от СК до ~ТТК,55.75197,37.57942
626,36,Новый Арбат 32,Звезды Арбата Mariott,Москва,Арбат,ЦАО,ЦАО,2) от СК до ~ТТК,55.75346,37.58078
630,37,Остоженка Парк Палас,Ostozhenka Park Palace,Москва,Хамовники,ЦАО,ЦАО,1) внутри СК,55.7371,37.59997
631,38,Парк мира,Park Mira,Москва,Алексеевский,СВАО,СВАО,3) от ~ТТК до МКАД,55.80166,37.63666
638,39,Резиденция Чистые пруды,,Москва,Басманный,ЦАО,ЦАО,1) внутри СК,55.75897,37.65056
640,40,Садовые кварталы,,Москва,Хамовники,ЦАО,ЦАО,2) от СК до ~ТТК,55.72624,37.5751
641,11,Сады Пекина,,Москва,Пресненский,ЦАО,ЦАО,2) от СК до ~ТТК,55.76864,37.59221
642,41,Северный Парк,,Москва,Войковский,САО,САО,3) от ~ТТК до МКАД,55.82696,37.48911
643,3,Долина Сетунь,,Москва,Раменки,ЗАО,ЗАО,3) от ~ТТК до МКАД,55.71614,37.50391
645,42,Скай Паркс,Sky Parks,Москва,Лосиноостровский,СВАО,СВАО,3) от ~ТТК до МКАД,55.87099,37.68303
646,43,Скай Форт,,Москва,Нагатино-Садовники,ЮАО,ЮАО,3) от ~ТТК до МКАД,55.67871,37.63463
648,3,Смоленский Де-Люкс,Smolemsky De-Luxe,Москва,Арбат,ЦАО,ЦАО,2) от СК до ~ТТК,55.74931,37.57932
649,44,Снегири Эко,,Москва,Раменки,ЗАО,ЗАО,3) от ~ТТК до МКАД,55.717,37.504
650,3,Соколиный форт,,Москва,Богородское,ВАО,ВАО,3) от ~ТТК до МКАД,55.816,37.702
656,45,Сытинский,,Москва,Пресненский,ЦАО,ЦАО,1) внутри СК,55.76323,37.59885
659,46,Трайбека,Tribeca,Москва,Басманный,ЦАО,ЦАО,2) от СК до ~ТТК,55.77573,37.67208
660,14,Триколор,,Москва,Ростокино,СВАО,СВАО,3) от ~ТТК до МКАД,55.83502,37.65777
663,47,Фили Град,,Москва,Филевский Парк,ЗАО,ЗАО,3) от ~ТТК до МКАД,55.75535,37.50872
667,22,Флотилия,,Москва,Ховрино,САО,САО,3) от ~ТТК до МКАД,55.85404,37.49703
671,5,Чертановский,,Москва,Южное Чертаново,ЮАО,ЮАО,3) от ~ТТК до МКАД,55.5944,37.59815
672,48,Четыре Солнца,,Москва,Замоскворечье,ЦАО,ЦАО,1) внутри СК,55.74231,37.63475
673,49,Шатер,,Москва,Красносельский,ЦАО,ЦАО,2) от СК до ~ТТК,55.7818,37.66634
674,9,Штаб-квартира на Мосфильмовской,,Москва,Раменки,ЗАО,ЗАО,3) от ~ТТК до МКАД,55.71108,37.50476
676,12,Юнион Парк,Union Park,Москва,Хорошево-Мневники,СЗАО,СЗАО,3) от ~ТТК до МКАД,55.78213,37.46931
678,50,Бутовские аллеи,,Новая Москва,Сосенское,НАО,НАО,5) Н. Москва ближ.,55.54535,37.49564
681,51,Дубровка,,Новая Москва,Сосенское,НАО,НАО,5) Н. Москва ближ.,55.56778,37.44327
683,52,Зеленая Москва,Внуково Парк,Новая Москва,Марушкинское,НАО,НАО,6) Н. Москва дальн.,55.59269,37.2063
684,53,Калипсо 2,,Новая Москва,Щербинка,НАО,НАО,6) Н. Москва дальн.,55.51176,37.57152
688,54,Москва А101,,Новая Москва,Сосенское,НАО,НАО,5) Н. Москва ближ.,55.56959,37.49136
690,55,Новое Бутово,,Новая Москва,Воскресенское,НАО,НАО,6) Н. Москва дальн.,55.52617,37.51048
693,56,Новые Ватутинки Южный,,Новая Москва,Десеновское,НАО,НАО,6) Н. Москва дальн.,55.51624,37.36876
696,57,Первый Московский,,Новая Москва,Московский,НАО,НАО,5) Н. Москва ближ.,55.60424,37.35869
697,57,Переделкино Ближнее,,Новая Москва,Внуковское,НАО,НАО,5) Н. Москва ближ.,55.63769,37.3312
702,9,Солнцево Парк,,Новая Москва,Внуковское,НАО,НАО,5) Н. Москва ближ.,55.62516,37.30659
703,58,Татьянин Парк,,Новая Москва,Московский,НАО,НАО,5) Н. Москва ближ.,55.65536,37.42604
704,12,Эдальго Гарден Парк,Edalgo Garden Parkк,Новая Москва,Сосенское,НАО,НАО,5) Н. Москва ближ.,55.5667,37.47936
719,56,Новые Ватутинки,,Новая Москва,Десеновское,НАО,НАО,6) Н. Москва дальн.,55.51733,37.3524
723,59,Дом на Красина,,Москва,Пресненский,ЦАО,ЦАО,2) от СК до ~ТТК,55.76793,37.58282
724,60,Некрасовка квартал 10-11,,Москва,Некрасовка,ЮВАО,ЮВАО,4) Москва за МКАД,55.703,37.931
725,61,ВТБ Арена Парк,,Москва,Аэропорт,САО,САО,2) от СК до ~ТТК,55.79051,37.5692
726,62,Маршал,,Москва,Щукино,СЗАО,СЗАО,3) от ~ТТК до МКАД,55.797,37.496
728,63,Эталон-Сити,,Москва,Южное Бутово,ЮЗАО,ЮЗАО,4) Москва за МКАД,55.555,37.559
729,64,Турандот Резиденции,,Москва,Арбат,ЦАО,ЦАО,1) внутри СК,55.75004,37.59243
731,3,Сердце Столицы,,Москва,Хорошево-Мневники,СЗАО,СЗАО,3) от ~ТТК до МКАД,55.76277,37.515
733,14,Око,,Москва,Пресненский,ЦАО,ЦАО,2) от СК до ~ТТК,55.75,37.53413
734,65,Шоколад,,Москва,Таганский,ЦАО,ЦАО,1) внутри СК,55.74459,37.65416
737,66,Северная слобода,,Москва,Северный,СВАО,СВАО,4) Москва за МКАД,55.9254,37.54909
742,3,Кленовый дом,,Москва,Хамовники,ЦАО,ЦАО,1) внутри СК,55.73633,37.60056
745,14,Мон Шер,Mon Cher,Москва,Якиманка,ЦАО,ЦАО,1) внутри СК,55.73846,37.61592
747,67,Ред Сайд,Red Side,Москва,Пресненский,ЦАО,ЦАО,2) от СК до ~ТТК,55.76007,37.54941
749,14,Лица,,Москва,Хорошевский,САО,САО,3) от ~ТТК до МКАД,55.78613,37.54198
751,3,Дом на Мосфильмовской,,Москва,Раменки,ЗАО,ЗАО,3) от ~ТТК до МКАД,55.724,37.52708
752,17,Газоил Сити,Розмарин,Москва,Черемушки,ЮЗАО,ЮЗАО,3) от ~ТТК до МКАД,55.65884,37.56082
753,68,Измайлово Лейн,Izmailovo Lane,Москва,Соколиная Гора,ВАО,ВАО,3) от ~ТТК до МКАД,55.78565,37.73679
758,5,17-й проезд Марьиной Рощи 1,,Москва,Марьина Роща,СВАО,СВАО,3) от ~ТТК до МКАД,55.80715,37.61184
762,69,Махаон,,Москва,Тверской,ЦАО,ЦАО,2) от СК до ~ТТК,55.77884,37.60866
1003,12,Арт,Art,Московская область,Красногорск,Волоколамское шоссе,Красногорский район,7) МО ближ.,55.81417,37.35894
1006,70,Берег Скалбы,,Московская область,Ивантеевка,Ярославское шоссе,"Ивантеевка, городской округ",8) МО ср.,55.97306,37.93257
1007,9,Бутово Парк 1,Мортоноград Бутово,Московская область,Дрожжино,Симферопольское шоссе,Ленинский район,7) МО ближ.,55.54742,37.58695
1009,9,Бутово Парк 2Б,Мортоноград Бутово Дрожжино-2,Московская область,Дрожжино,Симферопольское шоссе,Ленинский район,7) МО ближ.,55.52253,37.5947
1010,12,Велтон Парк Новая Сходня,Welton Park Новая Сходня,Московская область,Химки,Ленинградское шоссе,"Химки, городской округ",7) МО ближ.,55.94226,37.26265
1012,9,Восточное Бутово,Боброво,Московская область,Дрожжино,Симферопольское шоссе,Ленинский район,7) МО ближ.,55.5333,37.61228
1013,71,Восточный (Звенигород),,Московская область,Звенигород,Рублевское шоссе,"Звенигород, городской округ",8) МО ср.,55.72106,36.87181
1019,9,Завидное,,Московская область,Видное,Каширское шоссе,Ленинский район,7) МО ближ.,55.53977,37.72738
1025,9,Катюшки 2,,Московская область,Лобня,Дмитровское шоссе,"Лобня, городской округ",8) МО ср.,56.00732,37.44104
1029,5,Красная горка,,Московская область,Люберцы,Новорязанское шоссе,Люберецкий район,7) МО ближ.,55.69232,37.90677
1030,5,Левобережный,,Московская область,Химки,Ленинградское шоссе,"Химки, городской округ",7) МО ближ.,55.90055,37.48047
1033,9,Микрорайон 1 мая,,Московская область,Балашиха,Горьковское шоссе,"Балашиха, городской округ",7) МО ближ.,55.80571,37.84365
1036,62,Немчиновка,,Московская область,Немчиновка,Минское шоссе,Одинцовский район,7) МО ближ.,55.72797,37.35307
1039,72,Новые Островцы,,Московская область,Островцы,Новорязанское шоссе,Раменский район,8) МО ср.,55.60397,37.98146
1040,73,Новые Снегири,,Московская область,Рождествено,Волоколамское шоссе,"Истра, городской округ",8) МО ср.,55.86173,37.04287
1044,74,Олимпийский (Мытищи),,Московская область,Мытищи,Ярославское шоссе,Мытищинский район,7) МО ближ.,55.94363,37.77395
1045,75,Победа,,Московская область,Лобня,Дмитровское шоссе,"Лобня, городской округ",8) МО ср.,56.02514,37.47158
1047,9,Путилково,,Московская область,Путилково,Пятницкое шоссе,Красногорский район,7) МО ближ.,55.87494,37.40426
1053,9,Рождественский,,Московская область,Мытищи,Ярославское шоссе,Мытищинский район,7) МО ближ.,55.91957,37.75014
1055,76,Светолюбово,,Московская область,Пушкино,Ярославское шоссе,Пушкинский район,8) МО ср.,56.04671,37.86098
1061,77,Центр-2,,Московская область,Железнодорожный,Носовихинское шоссе,"Железнодорожный, городской округ",8) МО ср.,55.74118,38.00626
1063,78,Центральный 8 (Ивантеевка),,Московская область,Ивантеевка,Ярославское шоссе,"Ивантеевка, городской округ",8) МО ср.,55.96699,37.89797
1065,9,Щитниково Б,,Московская область,Балашиха,Горьковское шоссе,"Балашиха, городской округ",7) МО ближ.,55.82447,37.88821
1068,9,Южное Кучино 2,,Московская область,Железнодорожный,Носовихинское шоссе,"Железнодорожный, городской округ",8) МО ср.,55.7432,37.96047
1070,79,Южный (Домодедово),Большое Домодедово,Московская область,Домодедово,Каширское шоссе,"Домодедово, городской округ",8) МО ср.,55.39395,37.77295
1071,5,Ярославский,,Московская область,Мытищи,Ярославское шоссе,Мытищинский район,7) МО ближ.,55.91684,37.71018
1076,80,Новое Измайлово,,Московская область,Балашиха,Горьковское шоссе,"Балашиха, городской округ",7) МО ближ.,55.79123,37.88791
1081,81,Ново-Молоково,,Московская область,Молоково,Каширское шоссе,Ленинский район,8) МО ср.,55.56231,37.84909
1083,81,Южное Видное,,Московская область,Видное,Каширское шоссе,Ленинский район,7) МО ближ.,55.54048,37.71965
1084,82,Весна,Vesna,Московская область,Апрелевка,Киевское шоссе,Наро-Фоминский район,8) МО ср.,55.53357,37.06301
1088,83,Новое Пушкино,,Московская область,Пушкино,Ярославское шоссе,Пушкинский район,8) МО ср.,56.02779,37.86742
1090,57,Резиденция Сколково,,Московская область,Сколково (Заречье),Минское шоссе,Одинцовский район,7) МО ближ.,55.68497,37.39757
1096,80,Новое Тушино,UP-квартал Тушино,Московская область,Путилково,Пятницкое шоссе,Красногорский район,7) МО ближ.,55.86952,37.39989
1098,84,Гусарская баллада,,Московская область,ВНИИСОК,Минское шоссе,Одинцовский район,8) МО ср.,55.65796,37.23037
1099,85,Новокосино,,Московская область,Реутов,Носовихинское шоссе,"Реутов, городской округ",7) МО ближ.,55.74884,37.87724
1100,77,Новогорск Парк,,Московская область,Химки,Ленинградское шоссе,"Химки, городской округ",8) МО ср.,55.90894,37.32971
1107,86,Красногорские ключи,,Московская область,Красногорск,Волоколамское шоссе,Красногорский район,7) МО ближ.,55.81373,37.33908
1110,79,Павшинская пойма,,Московская область,Красногорск,Волоколамское шоссе,Красногорский район,7) МО ближ.,55.8175,37.37399
1112,87,Ред Хиллс,Red Hills,Московская область,Красногорск,Волоколамское шоссе,Красногорский район,7) МО ближ.,55.81428,37.32513
1113,88,Родионово,,Московская область,Химки,Ленинградское шоссе,"Химки, городской округ",7) МО ближ.,55.90117,37.41588
1117,89,Весенний,,Московская область,Подольск,Симферопольское шоссе,"Подольск, городской округ",8) МО ср.,55.39235,37.56386
1120,82,Парк Рублево,,Московская область,Красногорск,Волоколамское шоссе,Красногорский район,7) МО ближ.,55.81377,37.37955
1123,90,Митино Дальнее,,Московская область,Брехово,Пятницкое шоссе,Солнечногорский район,8) МО ср.,55.93224,37.18049
1124,90,Центр Плюс,,Московская область,Железнодорожный,Носовихинское шоссе,"Железнодорожный, городской округ",8) МО ср.,55.74166,38.00941
1125,27,Оранж Вуд,Orange Wood,Московская область,Ивантеевка,Ярославское шоссе,"Ивантеевка, городской округ",8) МО ср.,55.97348,37.89609
1129,91,Супонево,,Московская область,Звенигород,Рублевское шоссе,"Звенигород, городской округ",8) МО ср.,55.74523,36.87994
1133,2,Одинбург,,Московская область,Одинцово,Минское шоссе,Одинцовский район,7) МО ближ.,55.6821,37.24995
1134,63,Изумрудные холмы,,Московская область,Красногорск,Волоколамское шоссе,Красногорский район,7) МО ближ.,55.83422,37.27585
1137,87,Заводская 31 (Красногорск),,Московская область,Красногорск,Волоколамское шоссе,Красногорский район,7) МО ближ.,55.80922,37.32591
1142,92,Лукино-Варино,,Московская область,Свердловский,Щелковское шоссе,Щелковский район,9) МО дальн.,55.90115,38.15266
1145,93,Бородино,,Московская область,Подольск,Симферопольское шоссе,"Подольск, городской округ",8) МО ср.,55.39566,37.56641
1149,94,Нахабино Ясное,,Московская область,Нахабино,Волоколамское шоссе,Красногорский район,8) МО ср.,55.84003,37.13537
1152,95,Горки-Фаворит,,Московская область,Горки-10,Рублевское шоссе,Одинцовский район,8) МО ср.,55.70534,37.02578
1153,96,МАРЗ,,Московская область,Балашиха,Горьковское шоссе,"Балашиха, городской округ",8) МО ср.,55.75526,38.05615
1159,97,Новое Жегалово,,Московская область,Щелково,Щелковское шоссе,Щелковский район,8) МО ср.,55.90606,37.98327
1160,98,Ново Хлебниково,,Московская область,Долгопрудный,Дмитровское шоссе,"Долгопрудный, городской округ",8) МО ср.,55.971418,37.509981
1168,99,Московская 21 (Химки),,Московская область,Химки,Ленинградское шоссе,"Химки, городской округ",7) МО ближ.,55.88656,37.44302
1184,100,Горный,,Московская область,Химки,Ленинградское шоссе,"Химки, городской округ",7) МО ближ.,55.95832,37.31658
1187,101,Дом на Московской,,Московская область,Щелково,Щелковское шоссе,Щелковский район,8) МО ср.,55.90518,37.98703
1189,102,Дом на Студенческом,,Московская область,Ивантеевка,Ярославское шоссе,"Ивантеевка, городской округ",8) МО ср.,55.97547,37.91495
1193,9,Ильинская слобода,,Московская область,Ильинский,Новорязанское шоссе,Раменский район,8) МО ср.,55.62715,38.12201
1200,103,Малая Истра,,Московская область,Истра,Волоколамское шоссе,"Истра, городской округ",9) МО дальн.,55.90921,36.92008
1204,99,На Ленинском проспекте (Химки),,Московская область,Химки,Ленинградское шоссе,"Химки, городской округ",7) МО ближ.,55.9043,37.46636
1208,76,Новый Эдем,,Московская область,Химки,Ленинградское шоссе,"Химки, городской округ",8) МО ср.,55.88159,37.35933
1211,104,Первомайская улица (Пушкино),,Московская область,Пушкино,Ярославское шоссе,Пушкинский район,8) МО ср.,56.00755,37.83496
1214,105,Преображенский квартал,,Московская область,Балашиха,Горьковское шоссе,"Балашиха, городской округ",7) МО ближ.,55.79267,37.93334
1220,106,Тарасовская улица (Королев),,Московская область,Королёв,Ярославское шоссе,"Королёв, городской округ",8) МО ср.,55.94777,37.83295
1223,107,Центральный (Одинцово),,Московская область,Одинцово,Минское шоссе,Одинцовский район,7) МО ближ.,55.68074,37.25999
1224,108,Шихово,,Московская область,Звенигород,Рублевское шоссе,"Звенигород, городской округ",8) МО ср.,55.70715,36.79432
1225,109,Эко Парк Нахабино,Малина,Московская область,Нахабино,Волоколамское шоссе,Красногорский район,8) МО ср.,55.8559,37.18334
1226,106,Эстет,,Московская область,Климовск,Симферопольское шоссе,"Климовск, городской округ",8) МО ср.,55.35417,37.54201
1232,110,Космическая гавань,,Московская область,Краснознаменск,Минское шоссе,"Краснознаменск, ЗАТО",8) МО ср.,55.59952,37.04712
1234,71,Ракитня,,Московская область,Звенигород,Рублевское шоссе,"Звенигород, городской округ",8) МО ср.,55.71402,36.8307
1242,111,Рациональ,,Московская область,Реутов,Носовихинское шоссе,"Реутов, городской округ",7) МО ближ.,55.77004,37.8537
1245,112,Ривердейл,Riverdale,Москва,Даниловский,ЮАО,ЮАО,2) от СК до ~ТТК,55.71281,37.64457
1246,10,Санкт Николас,St.Nickolas,Москва,Тверской,ЦАО,ЦАО,1) внутри СК,55.75844,37.62507
1248,113,Староконюшенный 45,,Москва,Арбат,ЦАО,ЦАО,1) внутри СК,55.74982,37.59427
1249,114,Цветной 13,,Москва,Тверской,ЦАО,ЦАО,1) внутри СК,55.77034,37.61876
1253,115,Борисоглебское,,Новая Москва,Новофедоровское,ТАО,ТАО,6) Н. Москва дальн.,55.49753,36.91773
1264,116,Раменское Микрорайон 10,Десятка,Московская область,Раменское,Новорязанское шоссе,Раменский район,8) МО ср.,55.58917,38.24871
1268,70,Дача Шатена,,Московская область,Ивантеевка,Ярославское шоссе,"Ивантеевка, городской округ",8) МО ср.,55.97306,37.93257
1273,9,Сакраменто,,Московская область,Балашиха,Горьковское шоссе,"Балашиха, городской округ",8) МО ср.,55.80825,38.0547
1281,117,31-й квартал (Пушкино),,Московская область,Пушкино,Ярославское шоссе,Пушкинский район,8) МО ср.,56.00199,37.87169
1282,118,Красково,,Московская область,Красково,Новорязанское шоссе,Люберецкий район,8) МО ср.,55.65804,37.98296
1283,119,Влюберцы,,Московская область,Люберцы,Новорязанское шоссе,Люберецкий район,7) МО ближ.,55.70323,37.88831
1284,120,Парк Ольгино,,Московская область,Железнодорожный,Носовихинское шоссе,"Железнодорожный, городской округ",8) МО ср.,55.74,37.98435
1285,119,Андреевский квартал,,Московская область,Андреевка,Пятницкое шоссе,Солнечногорский район,8) МО ср.,55.97564,37.13764
1287,14,Горизонт (Москва),,Москва,Зюзино,ЮЗАО,ЮЗАО,3) от ~ТТК до МКАД,55.64228,37.60448
1288,46,Арт Резиденс,Art Residence,Москва,Беговой,САО,САО,2) от СК до ~ТТК,55.78175,37.58087
1289,29,На Циолковского,,Москва,Покровское-Стрешнево,СЗАО,СЗАО,3) от ~ТТК до МКАД,55.82841,37.44807
1291,121,Гальчино,,Московская область,Домодедово,Каширское шоссе,"Домодедово, городской округ",9) МО дальн.,55.27442,37.89913
1294,122,Красногорский,,Московская область,Нахабино,Волоколамское шоссе,Красногорский район,8) МО ср.,55.84992,37.19511
1296,123,Некрасовский,,Московская область,Некрасовский,Дмитровское шоссе,Дмитровский район,8) МО ср.,56.13034,37.50388
1301,124,Западный остров,,Московская область,Бузланово,Новорижское шоссе,Красногорский район,8) МО ср.,55.77304,37.2068
1303,94,Грюнвальд,,Московская область,Сколково (Заречье),Минское шоссе,Одинцовский район,7) МО ближ.,55.6953,37.39757
1305,125,Мелодия леса,,Московская область,Андреевка,Пятницкое шоссе,Солнечногорский район,8) МО ср.,55.98116,37.11191
1306,15,Рассвет Лофт,Rassvet Loft,Москва,Пресненский,ЦАО,ЦАО,2) от СК до ~ТТК,55.76508,37.5685
1308,126,Айвазовский,,Москва,Зюзино,ЮЗАО,ЮЗАО,3) от ~ТТК до МКАД,55.65473,37.58984
1310,127,Академгородок Сколково,,Московская область,Сколково (Заречье),Минское шоссе,Одинцовский район,7) МО ближ.,55.67802,37.38565
1315,128,Березовая роща (Видное),,Московская область,Видное,Каширское шоссе,Ленинский район,7) МО ближ.,55.54081,37.72064
1322,129,Девять,,Московская область,Котельники,Новорязанское шоссе,"Котельники, городской округ",7) МО ближ.,55.65247,37.87088
1327,130,Европейский,,Московская область,Домодедово,Каширское шоссе,"Домодедово, городской округ",8) МО ср.,55.41918,37.75965
1331,131,Зеленая роща,,Московская область,Ивантеевка,Ярославское шоссе,"Ивантеевка, городской округ",8) МО ср.,55.98759,37.93221
1332,58,Зеленые аллеи,,Московская область,Видное,Каширское шоссе,Ленинский район,7) МО ближ.,55.55763,37.69479
1333,132,Зеленый город,,Московская область,Зеленоградский,Ярославское шоссе,Пушкинский район,9) МО дальн.,56.0899,37.89934
1334,133,Зеленый остров,,Московская область,Котельники,Новорязанское шоссе,"Котельники, городской округ",7) МО ближ.,55.64622,37.86043
1336,134,Князь Голицын,,Московская область,Голицыно,Минское шоссе,Одинцовский район,8) МО ср.,55.61588,36.98198
1341,135,Крылатский,,Москва,Крылатское,ЗАО,ЗАО,3) от ~ТТК до МКАД,55.76926,37.37517
1342,40,Лайнер,,Москва,Хорошевский,САО,САО,3) от ~ТТК до МКАД,55.79096,37.52287
1346,136,Лидер Парк,,Московская область,Мытищи,Ярославское шоссе,Мытищинский район,7) МО ближ.,55.92899,37.73619
1348,137,Любимое Домодедово,,Московская область,Домодедово,Каширское шоссе,"Домодедово, городской округ",8) МО ср.,55.41718,37.76081
1349,138,Маяк,,Московская область,Химки,Ленинградское шоссе,"Химки, городской округ",7) МО ближ.,55.89573,37.46218
1353,139,Мишино,,Московская область,Химки,Ленинградское шоссе,"Химки, городской округ",7) МО ближ.,55.92596,37.4391
1355,140,Московский (Подольск),,Московская область,Подольск,Симферопольское шоссе,"Подольск, городской округ",8) МО ср.,55.4501,37.54355
1360,83,Новое Медведково,,Московская область,Мытищи,Ярославское шоссе,Мытищинский район,7) МО ближ.,55.92599,37.7237
1365,141,Ольховка-3,,Московская область,Володарского,Каширское шоссе,Ленинский район,8) МО ср.,55.50377,37.94768
1367,142,Павшино Бест,,Московская область,Красногорск,Волоколамское шоссе,Красногорский район,7) МО ближ.,55.81015,37.36875
1369,143,Парковые аллеи,,Московская область,Красногорск,Волоколамское шоссе,Красногорский район,7) МО ближ.,55.83155,37.31314
1372,11,Театральный дом,,Москва,Арбат,ЦАО,ЦАО,1) внутри СК,55.75338,37.59866
1373,144,Подрезково,,Московская область,Химки,Ленинградское шоссе,"Химки, городской округ",7) МО ближ.,55.94893,37.33285
1375,145,Полет,,Московская область,Ногинск,Горьковское шоссе,Ногинский район,8) МО ср.,55.84356,38.45
1377,146,Президентский,,Московская область,Лыткарино,Новорязанское шоссе,"Лыткарино, городской округ",8) МО ср.,55.57413,37.90712
1379,146,Прибрежный,,Московская область,Лыткарино,Новорязанское шоссе,"Лыткарино, городской округ",8) МО ср.,55.58147,37.89435
1382,4,Радужный Краски жизни,,Московская область,Видное,Каширское шоссе,Ленинский район,7) МО ближ.,55.5427,37.71118
1387,4,Самоцветы,,Московская область,Люберцы,Новорязанское шоссе,Люберецкий район,7) МО ближ.,55.68958,37.86347
1396,147,Стрела,,Московская область,Королёв,Ярославское шоссе,"Королёв, городской округ",8) МО ср.,55.90445,37.86146
1403,148,Усадьба Суханово,,Московская область,Суханово,Каширское шоссе,Ленинский район,7) МО ближ.,55.53449,37.66841
1420,49,Карамель,,Москва,Савеловский,САО,САО,3) от ~ТТК до МКАД,55.79525,37.57447
1421,80,Гагаринский (Жуковский),,Московская область,Жуковский,Новорязанское шоссе,"Жуковский, городской округ",8) МО ср.,55.60942,38.08758
1425,149,Усадьба Новая Салтыковка,,Московская область,Балашиха,Горьковское шоссе,"Балашиха, городской округ",8) МО ср.,55.749,37.92615
1426,116,Апила,Apila,Московская область,Успенское,Рублевское шоссе,Одинцовский район,8) МО ср.,55.71553,37.06661
1427,150,Ареал,,Московская область,Люберцы,Новорязанское шоссе,Люберецкий район,7) МО ближ.,55.68797,37.86906
1428,151,Афродита,,Московская область,Пироговский,Ярославское шоссе,Мытищинский район,8) МО ср.,55.97101,37.73949
1431,152,Брусчатый поселок,,Московская область,Красногорск,Волоколамское шоссе,Красногорский район,7) МО ближ.,55.83495,37.31713
1434,100,Гвардейский,,Московская область,Химки,Ленинградское шоссе,"Химки, городской округ",7) МО ближ.,55.95279,37.30643
1440,153,Котельнический,,Москва,Таганский,ЦАО,ЦАО,1) внутри СК,55.74162,37.64623
1445,136,Лобня Сити,Лобня City,Московская область,Лобня,Дмитровское шоссе,"Лобня, городской округ",8) МО ср.,56.01381,37.44675
1447,154,Новогорск Квартиры,,Московская область,Химки,Ленинградское шоссе,"Химки, городской округ",8) МО ср.,55.89373,37.37419
1448,154,Новогорск Курорт,,Московская область,Химки,Ленинградское шоссе,"Химки, городской округ",8) МО ср.,55.90285,37.36487
1450,155,Перхушково Лайф,Перхушково Life,Московская область,Перхушково,Минское шоссе,Одинцовский район,8) МО ср.,55.65618,37.15714
1452,156,Резиденция Монэ,,Москва,Пресненский,ЦАО,ЦАО,2) от СК до ~ТТК,55.76152,37.55422
1453,157,Респект,,Московская область,Электроугли,Носовихинское шоссе,Ногинский район,8) МО ср.,55.71567,38.21755
1455,47,Савеловский Сити,,Москва,Бутырский,СВАО,СВАО,3) от ~ТТК до МКАД,55.80476,37.59025
1456,158,Созвездие (Одинцово),,Московская область,Одинцово,Минское шоссе,Одинцовский район,7) МО ближ.,55.66759,37.1806
1467,159,Эгодом,Egodom,Москва,Алексеевский,СВАО,СВАО,3) от ~ТТК до МКАД,55.81074,37.65384
1470,79,Флайт Сити,Flight City Елкино,Московская область,Елино,Ленинградское шоссе,Солнечногорский район,8) МО ср.,55.98915,37.26702
1473,160,Руполис Растуново,,Московская область,Домодедово,Каширское шоссе,"Домодедово, городской округ",9) МО дальн.,55.28086,37.83655
1479,161,Истринское подворье,,Московская область,Истра,Волоколамское шоссе,"Истра, городской округ",9) МО дальн.,55.86721,36.7977
1482,162,Сказка,,Московская область,Павловская слобода,Новорижское шоссе,"Истра, городской округ",8) МО ср.,55.823,37.09854
1483,163,Замитино,,Московская область,Сабурово,Пятницкое шоссе,Красногорский район,8) МО ср.,55.88484,37.25804
1491,11,Наследие,,Москва,Преображенское,ВАО,ВАО,3) от ~ТТК до МКАД,55.80023,37.71147
1494,164,Новая пресня,,Москва,Хорошево-Мневники,СЗАО,СЗАО,3) от ~ТТК до МКАД,55.76055,37.51862
1495,165,Рассказово,,Новая Москва,Внуковское,НАО,НАО,5) Н. Москва ближ.,55.62818,37.34046
1497,166,Ангелово,Angelovo,Московская область,Отрадное (МО),Пятницкое шоссе,Красногорский район,7) МО ближ.,55.85736,37.32449
1498,167,Квартал в Лесном,,Московская область,Лесной,Ярославское шоссе,Пушкинский район,9) МО дальн.,56.08589,37.93477
1503,80,Раменский,Новый Раменский,Московская область,Раменское,Новорязанское шоссе,Раменский район,8) МО ср.,55.58032,38.21371
1509,168,Лофт 151,Loft 151,Москва,Можайский,ЗАО,ЗАО,3) от ~ТТК до МКАД,55.70875,37.44384
1511,169,Негоциант,,Москва,Якиманка,ЦАО,ЦАО,1) внутри СК,55.74118,37.61338
1512,170,Новое Ялагино,,Московская область,Электросталь,Горьковское шоссе,"Электросталь, городской округ",8) МО ср.,55.76655,38.42519
1513,171,Планерный,,Московская область,Химки,Ленинградское шоссе,"Химки, городской округ",7) МО ближ.,55.88077,37.41844
1519,172,Видный Берег,,Московская область,Видное,Каширское шоссе,Ленинский район,7) МО ближ.,55.53342,37.72245
1522,173,Люсиновский,Дом на Люсиновской,Москва,Замоскворечье,ЦАО,ЦАО,2) от СК до ~ТТК,55.72351,37.62027
1528,49,Волга,,Москва,Красносельский,ЦАО,ЦАО,2) от СК до ~ТТК,55.77437,37.64091
1529,174,Голландский квартал,,Московская область,Ивантеевка,Ярославское шоссе,"Ивантеевка, городской округ",8) МО ср.,55.97094,37.87452
1530,175,Немецкая слобода,Гороховский 12,Москва,Басманный,ЦАО,ЦАО,2) от СК до ~ТТК,55.76495,37.66705
1531,142,Дом МИД,MID,Москва,Обручевский,ЮЗАО,ЮЗАО,3) от ~ТТК до МКАД,55.6729,37.52388
1534,140,Некрасова 4/8 (Подольск),"Калужский, Московский",Московская область,Подольск,Симферопольское шоссе,"Подольск, городской округ",8) МО ср.,55.44783,37.54958
1536,176,Реутов Микрорайон 6а,,Московская область,Реутов,Носовихинское шоссе,"Реутов, городской округ",7) МО ближ.,55.77334,37.84974
1537,177,Ривер Парк,River Park,Москва,Нагатинский Затон,ЮАО,ЮАО,3) от ~ТТК до МКАД,55.68303,37.69328
1539,178,Альфа-Центавра,Alfa Centavra,Московская область,Химки,Ленинградское шоссе,"Химки, городской округ",7) МО ближ.,55.89529,37.42346
1542,9,Люберецкий,,Московская область,Люберцы,Новорязанское шоссе,Люберецкий район,7) МО ближ.,55.70194,37.908
1545,179,Две Столицы,,Московская область,Химки,Ленинградское шоссе,"Химки, городской округ",7) МО ближ.,55.91602,37.40935
1546,180,Центральный (Щелково),,Московская область,Щелково,Щелковское шоссе,Щелковский район,8) МО ср.,55.91777,37.98291
1551,181,Звездный,,Московская область,Щелково,Щелковское шоссе,Щелковский район,8) МО ср.,55.89991,38.06522
1558,182,Приозерный (Железнодорожный),,Московская область,Железнодорожный,Носовихинское шоссе,"Железнодорожный, городской округ",8) МО ср.,55.75395,38.02094
1559,183,Пушкарь,,Московская область,Пушкино,Ярославское шоссе,Пушкинский район,8) МО ср.,55.9737,37.86633
1563,184,Шаляпинская усадьба,,Московская область,Химки,Ленинградское шоссе,"Химки, городской округ",7) МО ближ.,55.96111,37.30306
1564,127,Дом на Тихой,,Московская область,Сколково (Заречье),Минское шоссе,Одинцовский район,7) МО ближ.,55.67826,37.38833
1568,185,Пироговская Ривьера,,Московская область,Пироговский,Ярославское шоссе,Мытищинский район,8) МО ср.,55.98718,37.72609
1574,186,Лосиный парк,,Московская область,Королёв,Ярославское шоссе,"Королёв, городской округ",8) МО ср.,55.88448,37.93009
1575,71,Малиновый ручей-2,,Московская область,Звенигород,Рублевское шоссе,"Звенигород, городской округ",8) МО ср.,55.73159,36.84843
1578,116,Юит Парк,Yit Park,Московская область,Красногорск,Волоколамское шоссе,Красногорский район,7) МО ближ.,55.82134,37.31344
1588,187,Дом на Баковке,,Московская область,Одинцово,Минское шоссе,Одинцовский район,7) МО ближ.,55.68422,37.31055
1594,117,Добролюбова 32 (Пушкино),,Московская область,Пушкино,Ярославское шоссе,Пушкинский район,8) МО ср.,56.01555,37.83771
1596,11,Искра Парк,,Москва,Беговой,САО,САО,2) от СК до ~ТТК,55.79091,37.55189
1598,188,Москвич,,Московская область,Лобня,Дмитровское шоссе,"Лобня, городской округ",8) МО ср.,56.00573,37.46477
1601,80,Сколковский,UP-квартал Сколковский / Первый Одинцовский,Московская область,Одинцово,Минское шоссе,Одинцовский район,7) МО ближ.,55.69448,37.32551
1602,189,Новый Зеленоград,,Московская область,Рузино,Пятницкое шоссе,Солнечногорский район,8) МО ср.,55.93918,37.18374
1603,49,1147,,Москва,Алексеевский,СВАО,СВАО,3) от ~ТТК до МКАД,55.81278,37.64771
1604,190,Высокий берег (Ногинск),,Московская область,Ногинск,Горьковское шоссе,Ногинский район,8) МО ср.,55.84395,38.40588
1605,191,Гагарина 19 (Домодедово),,Московская область,Домодедово,Каширское шоссе,"Домодедово, городской округ",8) МО ср.,55.45052,37.74138
1610,109,Государев дом,,Московская область,Суханово,Каширское шоссе,Ленинский район,7) МО ближ.,55.53662,37.63945
1611,192,Полянка 44,,Москва,Якиманка,ЦАО,ЦАО,1) внутри СК,55.73209,37.61777
1614,193,Горизонт (Щелково),,Московская область,Щелково,Щелковское шоссе,Щелковский район,8) МО ср.,55.90473,38.05435
1617,67,Фабрика Марата,Ordynka Ордынка,Москва,Замоскворечье,ЦАО,ЦАО,1) внутри СК,55.73475,37.62616
1618,194,Лефорт,Lefort,Москва,Лефортово,ЮВАО,ЮВАО,3) от ~ТТК до МКАД,55.76742,37.70485
1619,195,Союзный,,Московская область,Одинцово,Минское шоссе,Одинцовский район,7) МО ближ.,55.6627,37.2848
1620,196,Спутник (Королев),,Московская область,Королёв,Ярославское шоссе,"Королёв, городской округ",8) МО ср.,55.92532,37.86443
1628,197,Калейдоскоп,,Московская область,Старая Купавна,Горьковское шоссе,Ногинский район,9) МО дальн.,55.80167,38.18331
1630,58,Ландыши,,Москва,Обручевский,ЮЗАО,ЮЗАО,3) от ~ТТК до МКАД,55.64921,37.49767
1631,40,Балчуг Вьюпоинт,Balchug Viewpoint,Москва,Замоскворечье,ЦАО,ЦАО,1) внутри СК,55.74647,37.62786
1632,40,Балчуг Резиденс,Balchug Residence,Москва,Замоскворечье,ЦАО,ЦАО,1) внутри СК,55.74676,37.63688
1634,198,Петровский парк (Лосино-Петровский),,Московская область,Лосино-Петровский,Щелковское шоссе,"Лосино-Петровский, городской округ",9) МО дальн.,55.878,38.206
1635,109,Театральный парк,,Московская область,Королёв,Ярославское шоссе,"Королёв, городской округ",8) МО ср.,55.92806,37.88941
1641,199,Лукино,,Московская область,Горки Ленинские,Каширское шоссе,Ленинский район,8) МО ср.,55.51138,37.85419
1646,200,Метрополис Лофт,Metropolis Loft,Москва,Басманный,ЦАО,ЦАО,1) внутри СК,55.76328,37.63652
1648,201,Авентин,,Московская область,Химки,Ленинградское шоссе,"Химки, городской округ",7) МО ближ.,55.9491,37.3083
1652,9,Северный (Москва),,Москва,Северный,СВАО,СВАО,4) Москва за МКАД,55.92524,37.54932
1655,71,Лермонтовский (Звенигород),,Московская область,Звенигород,Рублевское шоссе,"Звенигород, городской округ",8) МО ср.,55.74182,36.85179
1656,8,Хорошевский,,Москва,Хорошево-Мневники,СЗАО,СЗАО,3) от ~ТТК до МКАД,55.78578,37.49875
1658,192,На Шлюзовой набережной,I'M,Москва,Замоскворечье,ЦАО,ЦАО,2) от СК до ~ТТК,55.73109,37.64451
1660,202,Фрайдэй Вилладж,Friday Village,Московская область,Аристово,Пятницкое шоссе,Красногорский район,8) МО ср.,55.90692,37.25739
1661,203,Константа,Измайлово,Москва,Северное Измайлово,ВАО,ВАО,3) от ~ТТК до МКАД,55.80029,37.776
1662,204,Мелодия,Времена года,Московская область,Апрелевка,Киевское шоссе,Наро-Фоминский район,8) МО ср.,55.56498,37.09376
1667,42,Менжинского 30,,Москва,Бабушкинский,СВАО,СВАО,3) от ~ТТК до МКАД,55.86938,37.66977
1668,42,Пришвина 4а,,Москва,Бибирево,СВАО,СВАО,3) от ~ТТК до МКАД,55.88905,37.59188
1671,205,Сампо,Sampo,Московская область,Павловская слобода,Новорижское шоссе,"Истра, городской округ",8) МО ср.,55.80444,36.99903
1673,206,Башня Федерация,Federation Tower,Москва,Пресненский,ЦАО,ЦАО,2) от СК до ~ТТК,55.74985,37.53792
1675,207,Путилковское шоссе 19ВГ,,Московская область,Путилково,Пятницкое шоссе,Красногорский район,7) МО ближ.,55.86463,37.39539
1677,208,Альтаир,,Московская область,Химки,Ленинградское шоссе,"Химки, городской округ",7) МО ближ.,55.88921,37.48141
1679,209,Парк Легенд,,Москва,Даниловский,ЮАО,ЮАО,2) от СК до ~ТТК,55.70137,37.6426
1680,210,Город на реке Тушино-2018,,Москва,Покровское-Стрешнево,СЗАО,СЗАО,3) от ~ТТК до МКАД,55.82066,37.43393
1681,5,Варшавское шоссе 141,Варшавские огни,Москва,Южное Чертаново,ЮАО,ЮАО,3) от ~ТТК до МКАД,55.5901,37.60103
1682,211,Орехово,Грильяж Дом у Парка,Москва,Орехово-Борисово Северное,ЮАО,ЮАО,3) от ~ТТК до МКАД,55.61284,37.69775
1684,9,Жемчужина Зеленограда,,Москва,Крюково,ЗелАО,ЗелАО,4) Москва за МКАД,55.96945,37.15043
1688,212,Лайф Ботанический сад,Life Ботанический сад,Москва,Свиблово,СВАО,СВАО,3) от ~ТТК до МКАД,55.8471,37.63773
1691,213,На Базовской,,Москва,Западное Дегунино,САО,САО,3) от ~ТТК до МКАД,55.8779,37.50673
1692,12,Новая Звезда,,Новая Москва,Сосенское,НАО,НАО,5) Н. Москва ближ.,55.57728,37.47929
1694,117,Правда-4,,Московская область,Правдинский,Ярославское шоссе,Пушкинский район,9) МО дальн.,56.06272,37.84981
1696,213,Солнцево,,Москва,Солнцево,ЗАО,ЗАО,4) Москва за МКАД,55.6403,37.39882
1701,173,Резиденция на Всеволожском,,Москва,Хамовники,ЦАО,ЦАО,1) внутри СК,55.74283,37.59805
1702,117,Ривер Парк (Королев),River Park (Королев),Московская область,Королёв,Ярославское шоссе,"Королёв, городской округ",8) МО ср.,55.94089,37.87171
1705,81,Архитектурный пригород Южная долина,,Московская область,Горки Ленинские,Каширское шоссе,Ленинский район,8) МО ср.,55.52495,37.7911
1707,34,Квартал 38,,Москва,Обручевский,ЮЗАО,ЮЗАО,3) от ~ТТК до МКАД,55.66276,37.51487
1708,214,Клейнхаус,Kleinhouse,Москва,Басманный,ЦАО,ЦАО,2) от СК до ~ТТК,55.77577,37.67195
1720,215,Мытищи Лайт,Мытищи Lite,Московская область,Болтино,Ярославское шоссе,Мытищинский район,8) МО ср.,55.96351,37.67085
1721,54,Испанские кварталы,,Новая Москва,Сосенское,НАО,НАО,5) Н. Москва ближ.,55.59097,37.45127
1723,115,Борисоглебское-2,,Новая Москва,Новофедоровское,ТАО,ТАО,6) Н. Москва дальн.,55.49106,36.92213
1724,173,Дом на Сретенке,,Москва,Красносельский,ЦАО,ЦАО,1) внутри СК,55.77024,37.6381
1729,5,Бунинские луга,,Новая Москва,Сосенское,НАО,НАО,5) Н. Москва ближ.,55.54148,37.48756
1730,173,Дом на Серпуховском,,Москва,Даниловский,ЮАО,ЮАО,2) от СК до ~ТТК,55.71207,37.61249
1732,216,Парад планет,,Московская область,Королёв,Ярославское шоссе,"Королёв, городской округ",8) МО ср.,55.90464,37.86605
1733,217,Дружба,,Московская область,Домодедово,Каширское шоссе,"Домодедово, городской округ",8) МО ср.,55.42237,37.75759
1734,12,Невский,,Москва,Войковский,САО,САО,3) от ~ТТК до МКАД,55.8356,37.49576
1735,58,Новоград Павлино,,Московская область,Железнодорожный,Носовихинское шоссе,"Железнодорожный, городской округ",8) МО ср.,55.72277,37.9725
1736,91,Новый Катуар,,Московская область,Некрасовский,Дмитровское шоссе,Дмитровский район,8) МО ср.,56.09375,37.49549
1737,218,Первомайский (Ивантеевка),,Московская область,Ивантеевка,Ярославское шоссе,"Ивантеевка, городской округ",8) МО ср.,55.97298,37.91128
1740,219,Котельнические высотки,,Московская область,Котельники,Новорязанское шоссе,"Котельники, городской округ",7) МО ближ.,55.66473,37.87129
1741,220,Савин Дом,Savin Dom Sawin,Москва,Хамовники,ЦАО,ЦАО,2) от СК до ~ТТК,55.73569,37.56747
1746,31,Столичный,,Московская область,Железнодорожный,Носовихинское шоссе,"Железнодорожный, городской округ",8) МО ср.,55.74111,38.03155
1752,82,Катуар,,Московская область,Некрасовский,Дмитровское шоссе,Дмитровский район,8) МО ср.,56.09,37.51163
1753,221,Кварта,,Московская область,Одинцово,Минское шоссе,Одинцовский район,7) МО ближ.,55.68459,37.29959
1755,90,Клевер Ленд,Clever Land,Москва,Марфино,СВАО,СВАО,3) от ~ТТК до МКАД,55.8398,37.58147
1756,185,Аккорд Смарт-квартал,Accord Smart Квартал,Московская область,Ликино,Минское шоссе,Одинцовский район,8) МО ср.,55.60891,37.10454
1757,146,Батарейный,,Московская область,Лобня,Дмитровское шоссе,"Лобня, городской округ",8) МО ср.,56.02136,37.48215
1758,15,Депре Лофт,Depre Loft,Москва,Тверской,ЦАО,ЦАО,1) внутри СК,55.76817,37.61648
1759,222,Березовая аллея,Легендарный квартал,Москва,Отрадное,СВАО,СВАО,3) от ~ТТК до МКАД,55.84972,37.62534
1761,47,Воробьев дом,,Москва,Раменки,ЗАО,ЗАО,3) от ~ТТК до МКАД,55.7277,37.53547
1762,80,Дыхание,,Москва,Тимирязевский,САО,САО,3) от ~ТТК до МКАД,55.81735,37.57292
1763,154,Новогорск Олимпийская Ривьера,,Московская область,Химки,Ленинградское шоссе,"Химки, городской округ",8) МО ср.,55.90524,37.35997
1765,223,Белая Звезда,,Новая Москва,Щербинка,НАО,НАО,6) Н. Москва дальн.,55.51172,37.57018
1766,63,Золотая Звезда,,Москва,Соколиная Гора,ВАО,ВАО,3) от ~ТТК до МКАД,55.7595,37.73961
1767,140,Колхозная 55 (Подольск),Московский,Московская область,Подольск,Симферопольское шоссе,"Подольск, городской округ",8) МО ср.,55.44926,37.53576
1769,224,Звонарский,Zvonarsky Deluxe,Москва,Мещанский,ЦАО,ЦАО,1) внутри СК,55.76472,37.62157
1771,10,Чехов,Chehov,Москва,Тверской,ЦАО,ЦАО,1) внутри СК,55.77131,37.60671
1772,225,Новый бульвар (Долгопрудный),,Московская область,Долгопрудный,Дмитровское шоссе,"Долгопрудный, городской округ",7) МО ближ.,55.93198,37.49859
1774,103,Опалиха Парк,,Московская область,Красногорск,Волоколамское шоссе,Красногорский район,8) МО ср.,55.82635,37.2117
1777,5,Оранж Парк,Orange Park,Московская область,Котельники,Новорязанское шоссе,"Котельники, городской округ",7) МО ближ.,55.673,37.85586
1779,109,Императорские Мытищи,,Московская область,Болтино,Ярославское шоссе,Мытищинский район,8) МО ср.,55.95624,37.68395
1780,122,Город,,Москва,Дмитровский,САО,САО,3) от ~ТТК до МКАД,55.87831,37.53967
1781,5,Мещерский лес,,Москва,Солнцево,ЗАО,ЗАО,4) Москва за МКАД,55.66207,37.42473
1782,226,Шолохово,,Московская область,Шолохово,Дмитровское шоссе,Мытищинский район,8) МО ср.,56.04895,37.54334
1783,227,Андреевка Клубная улица,,Московская область,Андреевка,Пятницкое шоссе,Солнечногорский район,8) МО ср.,55.97919,37.13072
1786,192,Среда,Рязанский проспект 2,Москва,Нижегородский,ЮВАО,ЮВАО,3) от ~ТТК до МКАД,55.72935,37.73614
1787,9,Петр 1,Лефортово Парк,Москва,Лефортово,ЮВАО,ЮВАО,3) от ~ТТК до МКАД,55.75217,37.7082
1789,228,Кашинцево,,Московская область,Биокомбинат,Щелковское шоссе,Щелковский район,8) МО ср.,55.91584,38.1146
1792,94,Зиларт,Zilart,Москва,Даниловский,ЮАО,ЮАО,2) от СК до ~ТТК,55.69955,37.6343
1793,47,Ясный,,Москва,Орехово-Борисово Южное,ЮАО,ЮАО,3) от ~ТТК до МКАД,55.60063,37.72448
1795,229,Опалиха Вилладж,Opalikha Village,Московская область,Красногорск,Волоколамское шоссе,Красногорский район,8) МО ср.,55.84013,37.22856
1796,230,Нагорная 7,,Москва,Котловка,ЮЗАО,ЮЗАО,3) от ~ТТК до МКАД,55.68144,37.61037
1797,96,Душинская 16,Геометрия,Москва,Лефортово,ЮВАО,ЮВАО,2) от СК до ~ТТК,55.74554,37.7046
1798,231,Матч Пойнт,,Москва,Филевский Парк,ЗАО,ЗАО,3) от ~ТТК до МКАД,55.73572,37.49903
1799,232,Веледниково,,Московская область,Павловская слобода,Новорижское шоссе,"Истра, городской округ",8) МО ср.,55.79647,37.11591
1800,233,Дом у Реки,Ивакино Парк,Московская область,Химки,Ленинградское шоссе,"Химки, городской округ",7) МО ближ.,55.95397,37.47736
1801,234,Кварталы 21/19,,Москва,Рязанский,ЮВАО,ЮВАО,3) от ~ТТК до МКАД,55.72409,37.74106
1802,71,Радужный,,Московская область,Звенигород,Рублевское шоссе,"Звенигород, городской округ",8) МО ср.,55.70297,36.87608
1804,5,Вандер Парк,Vander Park,Москва,Кунцево,ЗАО,ЗАО,3) от ~ТТК до МКАД,55.74286,37.42077
1806,7,Медовая Долина,Диагональ,Новая Москва,Марушкинское,НАО,НАО,6) Н. Москва дальн.,55.58552,37.12492
1809,12,Букинист,,Москва,Коньково,ЮЗАО,ЮЗАО,3) от ~ТТК до МКАД,55.65342,37.52954
1810,235,Родной Город. Октябрьское поле,,Москва,Щукино,СЗАО,СЗАО,3) от ~ТТК до МКАД,55.78988,37.47528
1811,224,Янтарь Апартментс,Yantar Apartments,Москва,Ховрино,САО,САО,3) от ~ТТК до МКАД,55.87219,37.47374
1813,3,Символ,,Москва,Лефортово,ЮВАО,ЮВАО,2) от СК до ~ТТК,55.75259,37.70235
1815,236,Котельническая 21,Симфония набережных,Москва,Таганский,ЦАО,ЦАО,1) внутри СК,55.74372,37.64465
1816,5,Грин Парк,Green Park,Москва,Отрадное,СВАО,СВАО,3) от ~ТТК до МКАД,55.84971,37.61965
1817,192,Домашний,,Москва,Марьино,ЮВАО,ЮВАО,3) от ~ТТК до МКАД,55.64567,37.70663
1818,47,Басманный 5,,Москва,Красносельский,ЦАО,ЦАО,2) от СК до ~ТТК,55.7712,37.65849
1819,3,Суббота,,Москва,Беговой,САО,САО,2) от СК до ~ТТК,55.77977,37.57409
1823,2,АФИ Резиденс,AFI Residence / Резиденции композиторов,Москва,Даниловский,ЮАО,ЮАО,2) от СК до ~ТТК,55.70986,37.64603
1824,10,Набоков,Nabokov,Москва,Хамовники,ЦАО,ЦАО,1) внутри СК,55.74016,37.60498
1826,235,Родной Город. Каховская,,Москва,Зюзино,ЮЗАО,ЮЗАО,3) от ~ТТК до МКАД,55.65453,37.60073
1829,188,Плещеево,,Московская область,Подольск,Симферопольское шоссе,"Подольск, городской округ",8) МО ср.,55.45654,37.5795
1830,237,Пригород Лесное,,Московская область,Молоково,Каширское шоссе,Ленинский район,8) МО ср.,55.55875,37.80927
1831,47,Пресня-Сити,,Москва,Пресненский,ЦАО,ЦАО,2) от СК до ~ТТК,55.77051,37.56417
1833,47,Перовский,,Москва,Перово,ВАО,ВАО,3) от ~ТТК до МКАД,55.76453,37.79859
1834,238,Маяковский (Москва),,Москва,Войковский,САО,САО,3) от ~ТТК до МКАД,55.83714,37.49744
1835,239,Санрайз,Sunrise,Новая Москва,Воскресенское,НАО,НАО,6) Н. Москва дальн.,55.53324,37.45029
1836,70,Берег Скалбы-2,,Московская область,Ивантеевка,Ярославское шоссе,"Ивантеевка, городской округ",8) МО ср.,55.9731,37.93056
1839,96,На Коминтерна,,Москва,Бабушкинский,СВАО,СВАО,3) от ~ТТК до МКАД,55.86184,37.6782
1840,240,Звезда Томилино,,Московская область,Томилино,Новорязанское шоссе,Люберецкий район,8) МО ср.,55.66304,37.95535
1841,42,Октябрь (Москва),Клубный дом Октябрь,Москва,Хорошево-Мневники,СЗАО,СЗАО,3) от ~ТТК до МКАД,55.78585,37.48191
1842,172,Май,,Московская область,Горки Ленинские,Каширское шоссе,Ленинский район,8) МО ср.,55.51286,37.75913
1843,9,ВЛюблино,,Москва,Люблино,ЮВАО,ЮВАО,3) от ~ТТК до МКАД,55.6704,37.77475
1860,94,Лучи,,Москва,Солнцево,ЗАО,ЗАО,4) Москва за МКАД,55.64237,37.39127
1861,91,Микояна,Экоград на Микояна,Московская область,Химки,Ленинградское шоссе,"Химки, городской округ",7) МО ближ.,55.95631,37.28645
1862,116,Новый Ногинск,,Московская область,Ногинск,Горьковское шоссе,Ногинский район,8) МО ср.,55.89318,38.48332
1863,241,Отрада Комфорт,,Московская область,Отрадное (МО),Пятницкое шоссе,Красногорский район,7) МО ближ.,55.87868,37.31102
1864,242,Успенский квартал,Горки-8,Московская область,Горки-10,Рублевское шоссе,Одинцовский район,8) МО ср.,55.70079,37.15363
1865,47,Царская Площадь,,Москва,Беговой,САО,САО,2) от СК до ~ТТК,55.78477,37.56262
1867,243,Высоково,,Московская область,Электросталь,Горьковское шоссе,"Электросталь, городской округ",8) МО ср.,55.80284,38.46133
1868,5,Одинцово-1,,Московская область,Одинцово,Минское шоссе,Одинцовский район,7) МО ближ.,55.65353,37.27348
1869,173,Дом на Таганке,,Москва,Таганский,ЦАО,ЦАО,2) от СК до ~ТТК,55.73641,37.67359
1870,244,Мир Митино,,Москва,Митино,СЗАО,СЗАО,4) Москва за МКАД,55.85911,37.3727
1872,245,Диалект,,Московская область,Пироговский,Ярославское шоссе,Мытищинский район,8) МО ср.,55.9797,37.7474
1873,63,Летний Сад,,Москва,Дмитровский,САО,САО,3) от ~ТТК до МКАД,55.88096,37.54128
1874,235,Родной Город. Воронцовский Парк,,Москва,Обручевский,ЮЗАО,ЮЗАО,3) от ~ТТК до МКАД,55.66459,37.54548
1876,246,Юсупово Лайф Парк,Yusupovo Life Park,Московская область,Домодедово,Каширское шоссе,"Домодедово, городской округ",9) МО дальн.,55.39915,37.70188
1878,247,Большевик,,Москва,Беговой,САО,САО,2) от СК до ~ТТК,55.78133,37.57027
1879,10,Бунин,Bunin,Москва,Хамовники,ЦАО,ЦАО,2) от СК до ~ТТК,55.74097,37.57742
1880,248,Ирландский квартал,Остров Эрин,Новая Москва,Краснопахорское,ТАО,ТАО,6) Н. Москва дальн.,55.43349,37.32595
1882,249,Отражение,,Москва,Марьина Роща,СВАО,СВАО,3) от ~ТТК до МКАД,55.80552,37.61682
1883,173,Резиденция на Покровском бульваре,,Москва,Басманный,ЦАО,ЦАО,1) внутри СК,55.75596,37.64899
1884,9,Столичные поляны,,Москва,Южное Бутово,ЮЗАО,ЮЗАО,4) Москва за МКАД,55.55441,37.55599
1887,250,Фили Парк,Fili Park,Москва,Филевский Парк,ЗАО,ЗАО,3) от ~ТТК до МКАД,55.74581,37.51338
1888,251,Золоторожский,,Москва,Лефортово,ЮВАО,ЮВАО,2) от СК до ~ТТК,55.75187,37.68637
1890,83,Петра Алексеева,КутузовГрад 1,Москва,Можайский,ЗАО,ЗАО,3) от ~ТТК до МКАД,55.71828,37.42492
1891,80,Поколение,,Москва,Отрадное,СВАО,СВАО,3) от ~ТТК до МКАД,55.84917,37.57903
1892,15,Студио 12,Studio 12,Москва,Марьина Роща,СВАО,СВАО,3) от ~ТТК до МКАД,55.80507,37.6183
1893,83,Вавилова 69,Vavilove,Москва,Ломоносовский,ЮЗАО,ЮЗАО,3) от ~ТТК до МКАД,55.68108,37.55145
1897,176,Первомайское (Рогозинино),Эдельвейс,Новая Москва,Первомайское,ТАО,ТАО,6) Н. Москва дальн.,55.53657,37.18288
1899,252,Хлебников,,Московская область,Ивантеевка,Ярославское шоссе,"Ивантеевка, городской округ",8) МО ср.,55.97295,37.92899
1901,191,Ледово,,Московская область,Домодедово,Каширское шоссе,"Домодедово, городской округ",8) МО ср.,55.369505,37.792437
1903,253,Гостиница Москва,Four Seasons Moscow,Москва,Тверской,ЦАО,ЦАО,1) внутри СК,55.75711,37.61746
1904,254,Надежда,,Московская область,Ивантеевка,Ярославское шоссе,"Ивантеевка, городской округ",8) МО ср.,55.98062,37.90804
1905,96,Атмосфера,,Москва,Люблино,ЮВАО,ЮВАО,3) от ~ТТК до МКАД,55.67079,37.75095
1908,255,Вифанские пруды,,Московская область,Сергиев Посад,Ярославское шоссе,Сергиево-Посадский район,9) МО дальн.,56.29269,38.16699
1910,196,Донской (Сергиев Посад),,Московская область,Сергиев Посад,Ярославское шоссе,Сергиево-Посадский район,9) МО дальн.,56.3066,38.1377
1913,207,Первый Андреевский,,Московская область,Андреевка,Пятницкое шоссе,Солнечногорский район,8) МО ср.,55.98459,37.13861
1916,256,Солнечная Аллея,,Московская область,Менделеево,Ленинградское шоссе,Солнечногорский район,9) МО дальн.,56.03976,37.23884
1919,9,Новорижские кварталы,Ильинские луга,Московская область,Бузланово,Новорижское шоссе,Красногорский район,8) МО ср.,55.77689,37.24077
1920,257,Нева Тауерс,Neva Towers,Москва,Пресненский,ЦАО,ЦАО,2) от СК до ~ТТК,55.75133,37.53522
1922,5,Вавилова 4,,Москва,Донской,ЮАО,ЮАО,2) от СК до ~ТТК,55.70877,37.58957
1925,68,Пикассо,Picasso,Москва,Тропарево-Никулино,ЗАО,ЗАО,3) от ~ТТК до МКАД,55.66907,37.44795
1926,258,Резиденция Тверская,,Москва,Тверской,ЦАО,ЦАО,2) от СК до ~ТТК,55.77095,37.59137
1927,237,Люберцы 2017,,Московская область,Люберцы,Новорязанское шоссе,Люберецкий район,7) МО ближ.,55.70381,37.96051
1929,11,Достояние,,Москва,Кунцево,ЗАО,ЗАО,3) от ~ТТК до МКАД,55.7418,37.41987
1930,259,Квартал Центральный,,Московская область,Железнодорожный,Носовихинское шоссе,"Железнодорожный, городской округ",8) МО ср.,55.7493,37.9923
1931,172,Новокрасково,,Московская область,Красково,Новорязанское шоссе,Люберецкий район,8) МО ср.,55.66356,37.99911
1935,260,8 марта 3 (Люберцы),,Московская область,Люберцы,Новорязанское шоссе,Люберецкий район,7) МО ближ.,55.70119,37.88575
1936,52,Большие Мытищи,,Московская область,Мытищи,Ярославское шоссе,Мытищинский район,7) МО ближ.,55.89607,37.74404
1937,261,Новая Развилка,,Московская область,Развилка,Каширское шоссе,Ленинский район,7) МО ближ.,55.58638,37.75465
1938,38,Реномэ,Renome,Москва,Тверской,ЦАО,ЦАО,2) от СК до ~ТТК,55.78337,37.5993
1939,262,Скай Сколково,Sky Skolkovo,Московская область,Новоивановское,Минское шоссе,Одинцовский район,7) МО ближ.,55.71356,37.38059
1940,263,20-20,,Москва,Донской,ЮАО,ЮАО,2) от СК до ~ТТК,55.71316,37.59626
1942,264,Дом на Войковской,,Москва,Коптево,САО,САО,3) от ~ТТК до МКАД,55.8368,37.51845
1943,265,Купавна 2018,,Московская область,Старая Купавна,Горьковское шоссе,Ногинский район,9) МО дальн.,55.80386,38.18383
1945,109,Москвичка,,Новая Москва,Сосенское,НАО,НАО,5) Н. Москва ближ.,55.555,37.46403
1949,266,Сердце Одинцово,,Московская область,Одинцово,Минское шоссе,Одинцовский район,7) МО ближ.,55.67957,37.29218
1954,267,Зорге 9,Zorge 9,Москва,Хорошевский,САО,САО,3) от ~ТТК до МКАД,55.78215,37.50888
1955,47,Эко-Видное 2.0,,Московская область,Видное,Каширское шоссе,Ленинский район,7) МО ближ.,55.53132,37.72408
1956,268,Прайм Тайм,Prime Time,Москва,Хорошевский,САО,САО,3) от ~ТТК до МКАД,55.79519,37.52519
1957,151,Афродита-2,,Московская область,Пироговский,Ярославское шоссе,Мытищинский район,8) МО ср.,55.96884,37.73539
1959,173,Дом в Олимпийской деревне,Счастье в Олимпийской деревне,Москва,Тропарево-Никулино,ЗАО,ЗАО,3) от ~ТТК до МКАД,55.6726,37.46653
1960,269,Клубный дом на Космодамианской,,Москва,Замоскворечье,ЦАО,ЦАО,1) внутри СК,55.73848,37.64349
1961,213,На Симоновском,,Москва,Таганский,ЦАО,ЦАО,2) от СК до ~ТТК,55.72939,37.67296
1962,270,Немчиновка Резиденс,Nemchinovka Residence,Московская область,Немчиновка,Минское шоссе,Одинцовский район,7) МО ближ.,55.72122,37.34587
1963,14,Позитив,,Новая Москва,Московский,НАО,НАО,5) Н. Москва ближ.,55.63344,37.41608
1964,271,Смольная 44,,Москва,Левобережный,САО,САО,3) от ~ТТК до МКАД,55.86937,37.47375
1965,272,Союз,,Московская область,Королёв,Ярославское шоссе,"Королёв, городской округ",8) МО ср.,55.92242,37.86943
1967,98,Центральный-2 (Долгопрудный),,Московская область,Долгопрудный,Дмитровское шоссе,"Долгопрудный, городской округ",7) МО ближ.,55.93631,37.50619
1969,273,Новые Котельники,,Московская область,Котельники,Новорязанское шоссе,"Котельники, городской округ",7) МО ближ.,55.6398,37.85033
1970,8,Сити Парк,City Park,Москва,Пресненский,ЦАО,ЦАО,2) от СК до ~ТТК,55.75469,37.54324
1971,274,Лайм,Lime,Москва,Алексеевский,СВАО,СВАО,3) от ~ТТК до МКАД,55.81152,37.64515
1972,58,Барбарис,,Москва,Алтуфьевский,СВАО,СВАО,3) от ~ТТК до МКАД,55.87976,37.59616
1974,213,Дмитровское шоссе 169,,Москва,Северный,СВАО,СВАО,4) Москва за МКАД,55.93047,37.54421
1975,173,Дом на Мневниках,Счастье в Мневниках,Москва,Хорошево-Мневники,СЗАО,СЗАО,3) от ~ТТК до МКАД,55.77678,37.48749
1976,275,Истомкино,,Московская область,Ногинск,Горьковское шоссе,Ногинский район,8) МО ср.,55.83555,38.40325
1977,191,Каширское шоссе 6 (Домодедово),,Московская область,Домодедово,Каширское шоссе,"Домодедово, городской округ",8) МО ср.,55.45008,37.76233
1978,38,Малая Ордынка 19,,Москва,Замоскворечье,ЦАО,ЦАО,1) внутри СК,55.73696,37.62601
1980,276,Монодом,Monodom,Москва,Таганский,ЦАО,ЦАО,2) от СК до ~ТТК,55.74544,37.68552
1981,277,Мосс Апартментс,Moss Apartments,Москва,Басманный,ЦАО,ЦАО,1) внутри СК,55.76111,37.63587
1982,278,Первый квартал,Брусника,Московская область,Видное,Каширское шоссе,Ленинский район,7) МО ближ.,55.52741,37.71667
1983,191,Речная 3 (Домодедово),,Московская область,Домодедово,Каширское шоссе,"Домодедово, городской округ",8) МО ср.,55.44932,37.74039
1984,279,Серебряный бор,,Москва,Хорошево-Мневники,СЗАО,СЗАО,3) от ~ТТК до МКАД,55.79323,37.44896
1985,54,Скандинавия,,Новая Москва,Сосенское,НАО,НАО,5) Н. Москва ближ.,55.56503,37.50013
1989,80,Римский,UP-квартал Римский,Московская область,Развилка,Каширское шоссе,Ленинский район,7) МО ближ.,55.59754,37.76961
1991,54,Белые ночи,,Новая Москва,Сосенское,НАО,НАО,5) Н. Москва ближ.,55.55108,37.51159
1993,280,Вишневый сад,,Москва,Раменки,ЗАО,ЗАО,3) от ~ТТК до МКАД,55.71781,37.5274
1994,173,Дом в Кузьминках,Счастье в Кузьминках,Москва,Кузьминки,ЮВАО,ЮВАО,3) от ~ТТК до МКАД,55.70291,37.76754
1996,173,Дом на Усиевича,Счастье на Соколе,Москва,Аэропорт,САО,САО,3) от ~ТТК до МКАД,55.80551,37.53011
1997,281,Дом на Хлебном,,Москва,Арбат,ЦАО,ЦАО,1) внутри СК,55.75532,37.59391
1998,3,Жизнь на Плющихе,,Москва,Хамовники,ЦАО,ЦАО,2) от СК до ~ТТК,55.7354,37.57271
1999,282,Ивановские пруды,,Московская область,Домодедово,Каширское шоссе,"Домодедово, городской округ",8) МО ср.,55.43806,37.70764
2000,283,Новое Бисерово-2,,Московская область,Бисерово,Горьковское шоссе,Ногинский район,8) МО ср.,55.78366,38.12164
2001,5,Саларьево Парк,,Новая Москва,Московский,НАО,НАО,5) Н. Москва ближ.,55.61951,37.41648
2002,80,Скандинавский,,Московская область,Мытищи,Ярославское шоссе,Мытищинский район,7) МО ближ.,55.92088,37.66108
2003,284,Ил Рико,Il Ricco,Москва,Басманный,ЦАО,ЦАО,1) внутри СК,55.75759,37.65167
2005,5,Черняховского 19,,Москва,Аэропорт,САО,САО,3) от ~ТТК до МКАД,55.80862,37.5413
2006,237,Спутник,Sputnik,Московская область,Красногорск,Волоколамское шоссе,Красногорский район,7) МО ближ.,55.80114,37.37564
2007,122,Дуэт,,Москва,Западное Дегунино,САО,САО,3) от ~ТТК до МКАД,55.86606,37.53704
2008,5,Аннино Парк,,Москва,Южное Чертаново,ЮАО,ЮАО,3) от ~ТТК до МКАД,55.58485,37.60289
2009,285,Вивальди,Vivaldi,Москва,Черемушки,ЮЗАО,ЮЗАО,3) от ~ТТК до МКАД,55.66821,37.56354
2010,84,Гагарина 23а (Реутов),,Московская область,Реутов,Носовихинское шоссе,"Реутов, городской округ",7) МО ближ.,55.76555,37.86508
2011,38,Джаз,Jazz,Москва,Марьина Роща,СВАО,СВАО,2) от СК до ~ТТК,55.7938,37.61163
2012,165,Династия,,Москва,Хорошевский,САО,САО,3) от ~ТТК до МКАД,55.77657,37.52668
2013,173,Дом на Абрамцевской,Счастье в Лианозово,Москва,Лианозово,СВАО,СВАО,3) от ~ТТК до МКАД,55.89545,37.57489
2014,150,Истомкино Парк,,Московская область,Ногинск,Горьковское шоссе,Ногинский район,8) МО ср.,55.83735,38.40796
2015,10,Клауд Найн,Cloud NIne,Москва,Якиманка,ЦАО,ЦАО,1) внутри СК,55.74032,37.61738
2016,40,Свой,Гродненская 5а,Москва,Можайский,ЗАО,ЗАО,3) от ~ТТК до МКАД,55.71931,37.43564
2018,286,Нескучный,Нескучный Home Spa,Москва,Донской,ЮАО,ЮАО,2) от СК до ~ТТК,55.70229,37.59383
2019,5,Пресненский Вал 21,,Москва,Пресненский,ЦАО,ЦАО,2) от СК до ~ТТК,55.77144,37.56872
2020,5,Римского-Корсакова 11,,Москва,Отрадное,СВАО,СВАО,3) от ~ТТК до МКАД,55.87613,37.60071
2021,287,Юбилейный,,Московская область,Реутов,Носовихинское шоссе,"Реутов, городской округ",7) МО ближ.,55.75375,37.87565
2022,83,Михайлова 31,,Москва,Рязанский,ЮВАО,ЮВАО,3) от ~ТТК до МКАД,55.72602,37.77409
2023,288,Софийский,,Москва,Якиманка,ЦАО,ЦАО,1) внутри СК,55.74669,37.62383
2024,289,АиБ,,Московская область,Мещерино,Каширское шоссе,Ленинский район,8) МО ср.,55.5254,37.80036
2026,173,Дом в Кусково,Дом на Вешняковской 10 Счастье в Вешняках,Москва,Вешняки,ВАО,ВАО,3) от ~ТТК до МКАД,55.7353,37.82658
2027,173,Дом на Вешняковской,Дом на Вешняковской 18,Москва,Вешняки,ВАО,ВАО,3) от ~ТТК до МКАД,55.72368,37.82412
2028,173,Дом на Сходненской,,Москва,Северное Тушино,СЗАО,СЗАО,3) от ~ТТК до МКАД,55.844,37.44664
2029,290,Каскад Парк,Kaskad Park,Московская область,Подольск,Симферопольское шоссе,"Подольск, городской округ",8) МО ср.,55.38537,37.62329
2030,291,Лесное озеро,,Москва,Савелки,ЗелАО,ЗелАО,4) Москва за МКАД,55.99078,37.23547
2031,292,Лофтэк,Loftec,Москва,Басманный,ЦАО,ЦАО,2) от СК до ~ТТК,55.77561,37.67209
2032,60,Некрасовка квартал 13,,Москва,Некрасовка,ЮВАО,ЮВАО,4) Москва за МКАД,55.70237,37.94554
2033,60,Некрасовка квартал 6,,Москва,Некрасовка,ЮВАО,ЮВАО,4) Москва за МКАД,55.69931,37.93292
2035,293,Олимп,,Московская область,Хотьково,Ярославское шоссе,Сергиево-Посадский район,9) МО дальн.,56.2569,37.97488
2036,116,Солнечный (Жуковский),,Московская область,Жуковский,Новорязанское шоссе,"Жуковский, городской округ",8) МО ср.,55.60389,38.08332
2038,279,Центр-Сити,Первый комплекс небоскребов в ЦАО Headliner Хедлайнер Хэдлайнер,Москва,Пресненский,ЦАО,ЦАО,2) от СК до ~ТТК,55.75398,37.52526
2039,294,Экодолье Шолохово,,Московская область,Шолохово,Дмитровское шоссе,Мытищинский район,8) МО ср.,56.0439,37.53784
2041,7,Баркли Гэллери,Barkli Gallery,Москва,Якиманка,ЦАО,ЦАО,1) внутри СК,55.74118,37.62298
2042,295,Мостмэн,Mostman,Москва,Таганский,ЦАО,ЦАО,2) от СК до ~ТТК,55.74414,37.67117
2043,71,Некрасовский (Звенигород),,Московская область,Звенигород,Рублевское шоссе,"Звенигород, городской округ",8) МО ср.,55.73496,36.85973
2046,296,Концепт Хаус,Concept House,Москва,Можайский,ЗАО,ЗАО,3) от ~ТТК до МКАД,55.72354,37.43321
2048,5,Митино Парк,Mitino Park,Московская область,Красногорск,Волоколамское шоссе,Красногорский район,7) МО ближ.,55.8417,37.34605
2051,213,Селигерская 2,,Москва,Бескудниковский,САО,САО,3) от ~ТТК до МКАД,55.86208,37.5555
2052,116,Серебряные звоны-2,,Московская область,Звенигород,Рублевское шоссе,"Звенигород, городской округ",8) МО ср.,55.7275,36.86035
2053,297,Широкая Грин Парк,Shirokaya Green Park,Москва,Северное Медведково,СВАО,СВАО,3) от ~ТТК до МКАД,55.8858,37.67815
2057,63,Нормандия,,Москва,Лосиноостровский,СВАО,СВАО,3) от ~ТТК до МКАД,55.88276,37.68298
2059,170,Николая Курочкина 1 (Дедовск),,Московская область,Дедовск,Волоколамское шоссе,"Истра, городской округ",8) МО ср.,55.86309,37.11293
2061,80,Лесная корона,Первый Юбилейный,Московская область,Королёв,Ярославское шоссе,"Королёв, городской округ",8) МО ср.,55.78773,38.43283
2062,247,А Резиденс,A-Residence,Москва,Замоскворечье,ЦАО,ЦАО,1) внутри СК,55.73694,37.6418
2063,298,Амурская,Level Амурская,Москва,Гольяново,ВАО,ВАО,3) от ~ТТК до МКАД,55.80843,37.75974
2064,28,Артквартал НВ/9,Art Kvartal NV9 / Луна,Москва,Таганский,ЦАО,ЦАО,1) внутри СК,55.75123,37.64859
2065,192,Гринада,На Феодосийской,Москва,Северное Бутово,ЮЗАО,ЮЗАО,4) Москва за МКАД,55.55943,37.5763
2066,5,Западный порт,Западный порт Кварталы на набережной,Москва,Филевский Парк,ЗАО,ЗАО,3) от ~ТТК до МКАД,55.74986,37.51751
2067,5,Измайловский леc,Озерный,Московская область,Балашиха,Горьковское шоссе,"Балашиха, городской округ",7) МО ближ.,55.78381,37.8513
2069,299,Ленинский 38,L38,Москва,Гагаринский,ЮЗАО,ЮЗАО,3) от ~ТТК до МКАД,55.70424,37.57062
2070,173,Лидер в Садовниках,Атлас-дом Лидер в Садовниках Счастье в Садовниках,Москва,Нагатино-Садовники,ЮАО,ЮАО,3) от ~ТТК до МКАД,55.68026,37.63263
2071,173,Лидер в Чертаново,Притяжение Лидер в Чертаново Счастье в Чертаново,Москва,Южное Чертаново,ЮАО,ЮАО,3) от ~ТТК до МКАД,55.60013,37.58979
2072,173,Лидер на Ленинском,Консул-дом Лидер на Ленинском Счастье на Ленинском,Москва,Тропарево-Никулино,ЗАО,ЗАО,3) от ~ТТК до МКАД,55.65375,37.48695
2073,173,Лидер на Масловке,Васнецов-дом Лидер на Масловке Счастье на Масловке,Москва,Савеловский,САО,САО,3) от ~ТТК до МКАД,55.79436,37.56612
2074,279,Люблинский,Дом у парка,Москва,Люблино,ЮВАО,ЮВАО,3) от ~ТТК до МКАД,55.67357,37.74503
2076,235,Орехово-Борисово,,Москва,Орехово-Борисово Южное,ЮАО,ЮАО,3) от ~ТТК до МКАД,55.60496,37.72217
2077,117,Писаревская 5 (Пушкино),,Московская область,Пушкино,Ярославское шоссе,Пушкинский район,8) МО ср.,56.00836,37.8425
2078,2,Резиденции архитекторов,АФИ AFI Почтовая,Москва,Басманный,ЦАО,ЦАО,3) от ~ТТК до МКАД,55.77896,37.69971
2079,2,Резиденции кинематографистов,АФИ AFI Серебрякова / Silver,Москва,Свиблово,СВАО,СВАО,3) от ~ТТК до МКАД,55.84819,37.65078
2080,47,Селигер Сити,Seliger City,Москва,Западное Дегунино,САО,САО,3) от ~ТТК до МКАД,55.86223,37.54297
2082,300,Варежки,,Московская область,Загорянский,Ярославское шоссе,Щелковский район,8) МО ср.,55.8837,37.9363
2083,53,Калипсо-3,,Новая Москва,Щербинка,НАО,НАО,6) Н. Москва дальн.,55.51369,37.5749
2084,173,Лидер в Царицыно,Меридиан-дом Лидер в Царицыно Счастье в Царицыно,Москва,Царицыно,ЮАО,ЮАО,3) от ~ТТК до МКАД,55.62802,37.66734
2085,173,Лидер на Волгоградском,Есенин-дом Лидер на Волгоградском Счастье на Волгоградке,Москва,Рязанский,ЮВАО,ЮВАО,3) от ~ТТК до МКАД,55.70971,37.78384
2086,173,Лидер на Дмитровском,Софьин-дом Лидер на Дмитровском Счастье на Дмитровке,Москва,Дмитровский,САО,САО,3) от ~ТТК до МКАД,55.88807,37.5372
2087,301,Резиденции Замоскворечье,,Москва,Замоскворечье,ЦАО,ЦАО,2) от СК до ~ТТК,55.72918,37.63184
2088,263,Сити Микc,City Mix,Москва,Тропарево-Никулино,ЗАО,ЗАО,3) от ~ТТК до МКАД,55.66124,37.45277
2089,302,У Озера,,Московская область,Павловское,Новорижское шоссе,"Истра, городской округ",8) МО ср.,55.87306,36.9479
2090,303,Большой Козихинский 13,Бакст,Москва,Пресненский,ЦАО,ЦАО,1) внутри СК,55.7636,37.59578
2091,279,Дом 128,Коньково,Москва,Теплый Стан,ЮЗАО,ЮЗАО,3) от ~ТТК до МКАД,55.63016,37.51441
2092,191,Кирова 17 (Домодедово),,Московская область,Домодедово,Каширское шоссе,"Домодедово, городской округ",8) МО ср.,55.43378,37.75247
2094,304,Отрадный,,Московская область,Мытищи,Ярославское шоссе,Мытищинский район,7) МО ближ.,55.91524,37.78277
2095,305,Сходня ЖСК,,Московская область,Химки,Ленинградское шоссе,"Химки, городской округ",7) МО ближ.,55.95313,37.29873
2097,306,Фестиваль Парк,Левобережный 2,Москва,Ховрино,САО,САО,3) от ~ТТК до МКАД,55.85591,37.47175
2098,307,Норд,Nord,Москва,Северный,СВАО,СВАО,4) Москва за МКАД,55.92065,37.5415
2102,306,Вавилов Дом,Вавилова 27,Москва,Академический,ЮЗАО,ЮЗАО,3) от ~ТТК до МКАД,55.69648,37.5707
2104,308,Институтская 14 (Щелково),Полет (Щелково) Велес,Московская область,Звенигород,Рублевское шоссе,"Звенигород, городской округ",8) МО ср.,55.90297,38.05144
2105,173,Лидер на Пресне,Счастье на Пресне,Москва,Пресненский,ЦАО,ЦАО,2) от СК до ~ТТК,55.76291,37.54285
2106,173,Лидер на Райниса,Лидер в Тушино Счастье в Тушино,Москва,Северное Тушино,СЗАО,СЗАО,3) от ~ТТК до МКАД,55.8536,37.43009
2107,237,Люберцы 2018-2020,,Московская область,Люберцы,Новорязанское шоссе,Люберецкий район,7) МО ближ.,55.69955,37.95736
2109,163,Парк Апрель,Park April,Московская область,Апрелевка,Киевское шоссе,Наро-Фоминский район,8) МО ср.,55.53025,37.03334
2110,237,Томилино 2018,,Московская область,Томилино,Новорязанское шоссе,Люберецкий район,8) МО ср.,55.62382,37.94568
2111,237,Химки 2018,Химки 2019,Московская область,Химки,Ленинградское шоссе,"Химки, городской округ",7) МО ближ.,55.95567,37.32784
2112,309,Весна (Ивантеевка),,Московская область,Ивантеевка,Ярославское шоссе,"Ивантеевка, городской округ",8) МО ср.,55.98399,37.91003
2113,5,Академика Павлова,,Москва,Кунцево,ЗАО,ЗАО,3) от ~ТТК до МКАД,55.74621,37.40708
4204,142,Время,,Москва,Преображенское,ВАО,ВАО,3) от ~ТТК до МКАД,55.80332,37.71415
4206,83,Новочеремушкинская 17,Академический,Москва,Академический,ЮЗАО,ЮЗАО,3) от ~ТТК до МКАД,55.68344,37.58261
4207,191,Текстильщиков 40 (Домодедово),,Московская область,Подольск,Симферопольское шоссе,"Подольск, городской округ",8) МО ср.,55.43269,37.73432
4208,63,Серебряный фонтан,,Москва,Алексеевский,СВАО,СВАО,3) от ~ТТК до МКАД,55.80941,37.64851
4214,310,Бакеево Парк,Новое Бакеево,Московская область,Андреевка,Пятницкое шоссе,Солнечногорский район,8) МО ср.,55.94541,37.09494
4216,311,Косыгина 21,Astris Residence,Москва,Раменки,ЗАО,ЗАО,3) от ~ТТК до МКАД,55.7052,37.54917
4217,212,Лайф Ботанический сад 2,LIFE Ботанический сад 2,Москва,Свиблово,СВАО,СВАО,3) от ~ТТК до МКАД,55.84768,37.62969
4218,312,Нижегородская 33 (Жуковский),Нижегородский,Московская область,Жуковский,Новорязанское шоссе,"Жуковский, городской округ",8) МО ср.,55.58337,38.14225
4220,5,Полярная 25,,Москва,Южное Медведково,СВАО,СВАО,3) от ~ТТК до МКАД,55.88372,37.63764
4222,313,Царев Сад,,Москва,Якиманка,ЦАО,ЦАО,1) внутри СК,55.74671,37.62384
4223,58,Южное Бунино,,Новая Москва,Сосенское,НАО,НАО,5) Н. Москва ближ.,55.54063,37.45583
4224,5,Ясеневая 14,,Москва,Орехово-Борисово Южное,ЮАО,ЮАО,3) от ~ТТК до МКАД,55.60111,37.72826
4225,314,Гринфилд,Greenfield,Московская область,Писково,Новорижское шоссе,"Истра, городской округ",8) МО ср.,55.77918,36.9752
4226,15,Роза Росса,Rosa Rossa Бутик-отель Зубовская,Москва,Хамовники,ЦАО,ЦАО,2) от СК до ~ТТК,55.7371,37.58371
4227,315,Нова Алексеевская,Nova Alekseevskaya,Москва,Алексеевский,СВАО,СВАО,3) от ~ТТК до МКАД,55.80998,37.64384
4228,116,Лыткарино Хит,,Московская область,Лыткарино,Новорязанское шоссе,"Лыткарино, городской округ",8) МО ср.,55.58746,37.88884
4230,58,Кленовые Аллеи,,Новая Москва,Десеновское,НАО,НАО,6) Н. Москва дальн.,55.50882,37.34252
4231,14,Кутузовский 12,Kutuzovskiy XXII,Москва,Дорогомилово,ЗАО,ЗАО,2) от СК до ~ТТК,55.7489,37.5574
4232,212,Лайф Кутузовский,Life Кутузовский,Москва,Можайский,ЗАО,ЗАО,3) от ~ТТК до МКАД,55.71451,37.43526
4233,316,Малая Бронная 15,,Москва,Пресненский,ЦАО,ЦАО,1) внутри СК,55.76079,37.59614
4234,317,Мос Ярд Дубининская,Mos Yard Дубининская,Москва,Замоскворечье,ЦАО,ЦАО,2) от СК до ~ТТК,55.72776,37.63854
4235,116,Финский,,Московская область,Щелково,Щелковское шоссе,Щелковский район,8) МО ср.,55.93644,37.97275
4236,318,Цветной 32,Цвет 32 Tsvet 32,Москва,Мещанский,ЦАО,ЦАО,1) внутри СК,55.7728,37.62255
4237,90,Чертановская 43,На Чертановской,Москва,Южное Чертаново,ЮАО,ЮАО,3) от ~ТТК до МКАД,55.60865,37.5928
4262,83,Серебряный парк,,Москва,Хорошево-Мневники,СЗАО,СЗАО,3) от ~ТТК до МКАД,55.78989,37.45754
4263,216,Грани,,Москва,Текстильщики,ЮВАО,ЮВАО,3) от ~ТТК до МКАД,55.71892,37.72675
4264,14,Капитал Тауерс,Capital Towers,Москва,Пресненский,ЦАО,ЦАО,2) от СК до ~ТТК,55.75151,37.54925
4266,213,Мой адрес в Бескудниково-2,,Москва,Бескудниковский,САО,САО,3) от ~ТТК до МКАД,55.86138,37.55627
4268,319,Цветной бульвар,,Московская область,Красково,Новорязанское шоссе,Люберецкий район,8) МО ср.,55.66219,37.99479
4269,83,Лесопарковый,,Москва,Южное Чертаново,ЮАО,ЮАО,3) от ~ТТК до МКАД,55.58336,37.58105
4294,139,Дмитровка 9,Dmitrovka IX,Москва,Тверской,ЦАО,ЦАО,1) внутри СК,55.76118,37.61344
4295,172,Облака,,Московская область,Люберцы,Новорязанское шоссе,Люберецкий район,7) МО ближ.,55.68481,37.89671
4296,83,Филатов луг,,Новая Москва,Московский,НАО,НАО,5) Н. Москва ближ.,55.61492,37.38482
4297,320,Прайм Парк,Prime Park,Москва,Хорошевский,САО,САО,3) от ~ТТК до МКАД,55.79336,37.5431
4298,47,Фили Сити,Fili City,Москва,Филевский Парк,ЗАО,ЗАО,3) от ~ТТК до МКАД,55.74338,37.5105
4299,14,Мичуринский 56,Небо,Москва,Раменки,ЗАО,ЗАО,3) от ~ТТК до МКАД,55.69582,37.48523
4301,3,Фридом,Freedom,Москва,Хорошево-Мневники,СЗАО,СЗАО,3) от ~ТТК до МКАД,55.76793,37.49976
4302,17,Розмарин Де-Люкс,Rozmarin De-Luxe Оникс Onyx,Москва,Черемушки,ЮЗАО,ЮЗАО,3) от ~ТТК до МКАД,55.65724,37.55914
4303,116,Аалто,Aalto,Москва,Савеловский,САО,САО,3) от ~ТТК до МКАД,55.80103,37.56176
4304,31,Береговой,,Москва,Филевский Парк,ЗАО,ЗАО,3) от ~ТТК до МКАД,55.75694,37.50992
4306,298,Левел Павелецкая,,Москва,Даниловский,ЮАО,ЮАО,2) от СК до ~ТТК,55.72266,37.64578
4307,173,Лобачевского 120,Крылья,Москва,Раменки,ЗАО,ЗАО,3) от ~ТТК до МКАД,55.69628,37.47072
4308,321,Любовь и голуби,,Москва,Западное Дегунино,САО,САО,3) от ~ТТК до МКАД,55.86357,37.53453
4309,46,Стори,Story,Москва,Даниловский,ЮАО,ЮАО,2) от СК до ~ТТК,55.70767,37.65588
4310,68,Ты и Я,You Me,Москва,Лосиноостровский,СВАО,СВАО,3) от ~ТТК до МКАД,55.87013,37.68667
4312,12,Кристалл Юнион Парк,Crystal Union Park,Москва,Хорошево-Мневники,СЗАО,СЗАО,3) от ~ТТК до МКАД,55.78228,37.46363
4328,212,Йес Ботанический сад,Yes Ботанический Сад Botanica,Москва,Ростокино,СВАО,СВАО,3) от ~ТТК до МКАД,55.84491,37.63957
4329,322,На Никулинской,,Москва,Тропарево-Никулино,ЗАО,ЗАО,3) от ~ТТК до МКАД,55.66858,37.46683
4330,34,Нахимов,,Москва,Черемушки,ЮЗАО,ЮЗАО,3) от ~ТТК до МКАД,55.67052,37.58192
4331,323,Нобл Роу,Noble Row,Москва,Хамовники,ЦАО,ЦАО,1) внутри СК,55.73786,37.5992
4332,324,Резиденция 9 18,,Московская область,Видное,Каширское шоссе,Ленинский район,7) МО ближ.,55.54525,37.69939
4333,33,Румянцево Парк,,Новая Москва,Московский,НАО,НАО,5) Н. Москва ближ.,55.63133,37.41462
4334,3,Фреш,Fresh,Москва,Зябликово,ЮАО,ЮАО,3) от ~ТТК до МКАД,55.61308,37.74928
4338,83,Преображение,,Москва,Богородское,ВАО,ВАО,3) от ~ТТК до МКАД,55.81272,37.7389
4339,325,Эдисон Хаус,Edison House,Москва,Пресненский,ЦАО,ЦАО,2) от СК до ~ТТК,55.77213,37.57665
4340,326,Воскресенский (Наро-Фоминск),,Московская область,Наро-Фоминск,Киевское шоссе,Наро-Фоминский район,9) МО дальн.,55.38715,36.72933
4342,150,Карамельный,,Московская область,Люберцы,Новорязанское шоссе,Люберецкий район,7) МО ближ.,55.66987,37.91015
4343,292,Ко Лофт,Co Loft,Москва,Донской,ЮАО,ЮАО,2) от СК до ~ТТК,55.71047,37.6154
4344,327,Магнум,Magnum,Москва,Хамовники,ЦАО,ЦАО,2) от СК до ~ТТК,55.72834,37.57245
4345,47,Мезон Руж,Maison Rouge,Москва,Тверской,ЦАО,ЦАО,2) от СК до ~ТТК,55.78379,37.59863
4346,62,Ренессанс (Москва),,Москва,Сокольники,ВАО,ВАО,3) от ~ТТК до МКАД,55.78619,37.69357
4347,328,Созвездие (Королев),,Московская область,Королёв,Ярославское шоссе,"Королёв, городской округ",8) МО ср.,55.91738,37.85034
4348,238,Спайрс,Spires Городские резиденции Нежинская 5,Москва,Очаково-Матвеевское,ЗАО,ЗАО,3) от ~ТТК до МКАД,55.71521,37.47492
4349,54,Испанские кварталы-2,,Новая Москва,Сосенское,НАО,НАО,5) Н. Москва ближ.,55.59136,37.44739
4350,329,Зеленоград Сити,,Москва,Савелки,ЗелАО,ЗелАО,4) Москва за МКАД,55.99301,37.22154
4352,330,Квартал 3,,Московская область,Химки,Ленинградское шоссе,"Химки, городской округ",7) МО ближ.,55.94646,37.29001
4353,327,Лайф Активити,Life Activity,Москва,Хорошевский,САО,САО,3) от ~ТТК до МКАД,55.77901,37.51234
4354,189,Наркомфин,Narkomfin,Москва,Пресненский,ЦАО,ЦАО,2) от СК до ~ТТК,55.75714,37.58127
4356,331,Сомелье,,Москва,Замоскворечье,ЦАО,ЦАО,1) внутри СК,55.74137,37.64286
4357,332,Татлин Апартментс,Tatlin Apartments,Москва,Басманный,ЦАО,ЦАО,2) от СК до ~ТТК,55.77389,37.67969
4358,3,Тишинский Средний 5,,Москва,Пресненский,ЦАО,ЦАО,2) от СК до ~ТТК,55.76981,37.57682
4360,333,Чкалов,Chkalov,Москва,Басманный,ЦАО,ЦАО,2) от СК до ~ТТК,55.75583,37.65943
4362,109,Пехра,,Московская область,Балашиха,Горьковское шоссе,"Балашиха, городской округ",7) МО ближ.,55.83485,37.95413
4363,334,Малаховский квартал,,Московская область,Малаховка,Новорязанское шоссе,Люберецкий район,8) МО ср.,55.63194,37.98135
4365,5,Павлова 40,,Москва,Кунцево,ЗАО,ЗАО,3) от ~ТТК до МКАД,55.74379,37.40741
4366,218,Ивантеевка 2020,,Московская область,Ивантеевка,Ярославское шоссе,"Ивантеевка, городской округ",8) МО ср.,55.97053,37.89632
4367,212,Йес Технопарк,Yes Технопарк,Москва,Даниловский,ЮАО,ЮАО,2) от СК до ~ТТК,55.69429,37.66547
4368,237,Остафьево,,Новая Москва,Щербинка,НАО,НАО,5) Н. Москва ближ.,55.50245,37.52251
4369,150,Твин Хаус (Люберцы),Twin House,Московская область,Люберцы,Новорязанское шоссе,Люберецкий район,7) МО ближ.,55.6868,37.87095
4371,4,Хилл 8,Hill 8,Москва,Останкинский,СВАО,СВАО,3) от ~ТТК до МКАД,55.80769,37.63519
4397,46,Плей,Play Первый. Динамичный. Дом,Москва,Даниловский,ЮАО,ЮАО,2) от СК до ~ТТК,55.70946,37.62418
4398,335,Кверкус,Domus Quercus,Москва,Тимирязевский,САО,САО,3) от ~ТТК до МКАД,55.81981,37.57041
4399,117,Тургенева 9 (Пушкино),Тургенева очередь 3,Московская область,Пушкино,Ярославское шоссе,Пушкинский район,8) МО ср.,56.01368,37.85302
4400,94,Ленинградка 58,,Москва,Головинский,САО,САО,3) от ~ТТК до МКАД,55.84341,37.48086
4402,216,Гоголь Парк,,Московская область,Люберцы,Новорязанское шоссе,Люберецкий район,7) МО ближ.,55.70574,37.89979
4403,47,Дискавери,Discovery,Москва,Ховрино,САО,САО,3) от ~ТТК до МКАД,55.86766,37.48306
4404,47,Дмитровский 1,D1,Москва,Тимирязевский,САО,САО,3) от ~ТТК до МКАД,55.80876,37.57862
4405,5,Жулебино Парк,,Московская область,Люберцы,Новорязанское шоссе,Люберецкий район,7) МО ближ.,55.6769,37.86383
4406,5,Измайловский 11,,Москва,Измайлово,ВАО,ВАО,3) от ~ТТК до МКАД,55.79685,37.76596
4407,212,Лайф Варшавская,Life Варшавская,Москва,Москворечье-Сабурово,ЮАО,ЮАО,3) от ~ТТК до МКАД,55.65074,37.63064
4409,336,Новое Лыткарино,,Московская область,Лыткарино,Новорязанское шоссе,"Лыткарино, городской округ",8) МО ср.,55.59705,37.88314
4410,116,Северный квартал,,Московская область,Электросталь,Горьковское шоссе,"Электросталь, городской округ",8) МО ср.,55.81151,38.43164
4411,306,Форест,FoRest,Москва,Ново-Переделкино,ЗАО,ЗАО,4) Москва за МКАД,55.64348,37.35829
4412,47,Усадьба Манор,Manor,Москва,Мещанский,ЦАО,ЦАО,1) внутри СК,55.77277,37.62698
4413,47,Дискавери Парк,Discovery Park,Москва,Ховрино,САО,САО,3) от ~ТТК до МКАД,55.87883,37.47915
4415,5,Люберцы Парк,,Московская область,Люберцы,Новорязанское шоссе,Люберецкий район,7) МО ближ.,55.7003,37.88215
4416,3,Огни,,Москва,Раменки,ЗАО,ЗАО,3) от ~ТТК до МКАД,55.69829,37.47324
4417,5,Мякинино Парк,,Москва,Кунцево,ЗАО,ЗАО,4) Москва за МКАД,55.80264,37.35049
4418,5,Белая Дача Парк,,Московская область,Котельники,Новорязанское шоссе,"Котельники, городской округ",7) МО ближ.,55.65694,37.87498
4419,80,Датский квартал,,Московская область,Мытищи,Ярославское шоссе,Мытищинский район,7) МО ближ.,55.90046,37.64035
4420,238,Биг Тайм,Big Time,Москва,Хорошево-Мневники,СЗАО,СЗАО,3) от ~ТТК до МКАД,55.77253,37.49754
4422,2,Сиреневый парк,,Москва,Метрогородок,ВАО,ВАО,3) от ~ТТК до МКАД,55.81842,37.75264
4423,337,Речной (Химки),,Московская область,Химки,Ленинградское шоссе,"Химки, городской округ",7) МО ближ.,55.89063,37.45485
4425,196,Ленинский 2 (Королев),Папанинский,Московская область,Королёв,Ярославское шоссе,"Королёв, городской округ",8) МО ср.,55.92816,37.84636
4426,72,Новые Островцы Южный,,Московская область,Островцы,Новорязанское шоссе,Раменский район,8) МО ср.,55.5993,37.98766
4427,83,Одинград,Odingrad,Московская область,Одинцово,Минское шоссе,Одинцовский район,7) МО ближ.,55.68376,37.26584
4428,109,Инновация,,Московская область,Новоивановское,Минское шоссе,Одинцовский район,7) МО ближ.,55.701014,37.363156
4429,5,Люблинский парк,,Москва,Люблино,ЮВАО,ЮВАО,3) от ~ТТК до МКАД,55.670615,37.736213
4430,5,Михайловский парк,,Москва,Рязанский,ЮВАО,ЮВАО,3) от ~ТТК до МКАД,55.723034,37.773771
4431,235,Семеновский парк,,Москва,Соколиная Гора,ВАО,ВАО,3) от ~ТТК до МКАД,55.776203,37.736833
4432,5,Шереметьевский,,Москва,Бутырский,СВАО,СВАО,3) от ~ТТК до МКАД,55.802887,37.598286
4433,338,_1+1,Soho+Noho,Москва,Беговой,САО,САО,2) от СК до ~ТТК,55.785822,37.585871
4438,339,Бусалова 10 (Яхрома),,Московская область,Яхрома,Дмитровское шоссе,Дмитровский район,9) МО дальн.,56.296064,37.478351
4444,340,Дмитров Парк,,Московская область,Дмитров,Дмитровское шоссе,Дмитровский район,9) МО дальн.,56.335371,37.512919
4447,341,Донской (Коломна),,Московская область,Коломна,Новорязанское шоссе,"Коломна, городской округ",9) МО дальн.,55.055638,38.740973
4449,342,Зеленоград Микрорайон 8,,Москва,Старое Крюково,ЗелАО,ЗелАО,4) Москва за МКАД,55.980818,37.178643
4454,5,Кузьминский лес,,Московская область,Котельники,Новорязанское шоссе,"Котельники, городской округ",7) МО ближ.,55.662547,37.854216
4458,343,Лесной (Егорьевск),,Московская область,Егорьевск,Егорьевское шоссе,"Егорьевск, городской округ",9) МО дальн.,55.353504,39.052383
4459,151,Лесной квартал,,Московская область,Дмитров,Дмитровское шоссе,Дмитровский район,9) МО дальн.,56.361212,37.544594
4462,344,Майданово Парк,,Московская область,Клин,Ленинградское шоссе,Клинский район,9) МО дальн.,56.344372,36.719928
4466,345,МираПарк,,Московская область,Серпухов,Симферопольское шоссе,"Серпухов, городской округ",9) МО дальн.,54.934299,37.385467
4473,346,На семи холмах,,Московская область,Клин,Ленинградское шоссе,Клинский район,9) МО дальн.,56.345656,36.72018
4476,347,Новый Клин,,Московская область,Клин,Ленинградское шоссе,Клинский район,9) МО дальн.,56.318635,36.767434
4478,344,Олимп-3,,Московская область,Клин,Ленинградское шоссе,Клинский район,9) МО дальн.,56.313212,36.753961
4480,348,Первомайская 80 (Куровское),В Куровском,Московская область,Куровское,Егорьевское шоссе,"Ликино-Дулево, городской округ",9) МО дальн.,55.577559,38.919146
4481,235,Петровский парк,,Москва,Савеловский,САО,САО,3) от ~ТТК до МКАД,55.798454,37.564644
4482,349,Пятиречье,,Московская область,Целеево,Дмитровское шоссе,Дмитровский район,9) МО дальн.,56.246201,37.499085
4483,350,Пятница Молодежный,,Московская область,Солнечногорск,Ленинградское шоссе,Солнечногорский район,9) МО дальн.,56.175111,36.952253
4489,351,Скрылья,,Московская область,Скрылья,Симферопольское шоссе,"Серпухов, городской округ",9) МО дальн.,54.937056,37.388291
4491,91,Созвездие (Звенигород),,Московская область,Звенигород,Рублевское шоссе,"Звенигород, городской округ",8) МО ср.,55.725402,36.873073
4493,352,Терра (Внуково),,Московская область,Внуково (Дмитровский район),Дмитровское шоссе,Дмитровский район,9) МО дальн.,56.364905,37.57386
4494,353,У Пруда,,Московская область,Высоковск,Ленинградское шоссе,Клинский район,9) МО дальн.,56.320941,36.547361
4497,354,Черемушки,,Московская область,Вербилки,Дмитровское шоссе,Талдмский район,9) МО дальн.,56.527915,37.607749
4498,355,Чеховский посад,,Московская область,Чехов,Симферопольское шоссе,"Чехов, городской округ",9) МО дальн.,55.188237,37.455202
4501,356,Шустов Парк,,Московская область,Солнечногорск,Ленинградское шоссе,Солнечногорский район,9) МО дальн.,56.196797,36.961569
4504,357,Аврора (Химки),,Московская область,Химки,Ленинградское шоссе,"Химки, городской округ",7) МО ближ.,55.909125,37.456226
4505,237,Большое Путилково,,Московская область,Путилково,Пятницкое шоссе,Красногорский район,7) МО ближ.,55.867126,37.384364
4506,344,Дружный,,Московская область,Тучково,Минское шоссе,Рузский район,9) МО дальн.,55.602856,36.492765
4507,116,Европейский (Егорьевск),,Московская область,Егорьевск,Егорьевское шоссе,"Егорьевск, городской округ",9) МО дальн.,55.377491,39.049882
4509,4,Серебрица,Миниполис Серебрица,Московская область,Красногорск,Волоколамское шоссе,Красногорский район,7) МО ближ.,55.829406,37.234313
4510,109,Бригантина (Долгопрудный),,Московская область,Долгопрудный,Дмитровское шоссе,"Долгопрудный, городской округ",7) МО ближ.,55.948104,37.483898
4511,31,Баланс,,Москва,Рязанский,ЮВАО,ЮВАО,3) от ~ТТК до МКАД,55.717256,37.768622
4512,14,Бауман Хаус,Bauman House,Москва,Басманный,ЦАО,ЦАО,3) от ~ТТК до МКАД,55.772723,37.701006
4513,358,Гранд Хиллс,Grand Hills,Московская область,Красногорск,Волоколамское шоссе,Красногорский район,7) МО ближ.,55.814977,37.326062
4514,47,Метрополия,Metropolia,Москва,Южнопортовый,ЮВАО,ЮВАО,2) от СК до ~ТТК,55.720852,37.693833
4515,31,Столичный Юг,,Московская область,Железнодорожный,Носовихинское шоссе,"Железнодорожный, городской округ",8) МО ср.,55.733889,38.032594
4516,359,Талисман на Водном,,Москва,Головинский,САО,САО,3) от ~ТТК до МКАД,55.839964,37.494192
4517,235,Фонвизинский,,Москва,Бутырский,СВАО,СВАО,3) от ~ТТК до МКАД,55.821521,37.592653
4519,80,Рихард,Rihard,Москва,Хорошевский,САО,САО,3) от ~ТТК до МКАД,55.782306,37.509333
4520,80,Настроение,,Москва,Ярославский,СВАО,СВАО,3) от ~ТТК до МКАД,55.850164,37.682737
4543,360,Городские истории,ТПУ Рассказовка,Новая Москва,Внуковское,НАО,НАО,5) Н. Москва ближ.,55.633513,37.33023
4544,5,Молодогвардейская 36Б,,Москва,Кунцево,ЗАО,ЗАО,3) от ~ТТК до МКАД,55.736701,37.418806
4549,361,Базаева 16 (Шаховская),,Московская область,Волоколамск,Волоколамское шоссе,Волоколамский район,9) МО дальн.,56.034021,35.502615
4550,279,Ай Лав,I Love,Москва,Останкинский,СВАО,СВАО,3) от ~ТТК до МКАД,55.810001,37.625918
4551,362,Вернад Скай,Vernad SKY,Москва,Тропарево-Никулино,ЗАО,ЗАО,3) от ~ТТК до МКАД,55.665799,37.483409
4552,363,Нарва Лофт,Narva Loft,Москва,Коптево,САО,САО,3) от ~ТТК до МКАД,55.833611,37.508766
4553,364,Серебряные росы,,Московская область,Андреевка,Пятницкое шоссе,Солнечногорский район,8) МО ср.,55.974323,37.14353
4554,359,Талисман на Дмитровском,,Москва,Западное Дегунино,САО,САО,3) от ~ТТК до МКАД,55.85537,37.559429
4555,365,Тополя,,Москва,Марьино,ЮВАО,ЮВАО,3) от ~ТТК до МКАД,55.666951,37.760338
4556,10,Фейрмонт,Fairmont,Москва,Тверской,ЦАО,ЦАО,2) от СК до ~ТТК,55.770926,37.595364
4557,366,Физкультурная 6 (Клин),,Московская область,Клин,Ленинградское шоссе,Клинский район,9) МО дальн.,56.325392,36.712134
4558,58,Цветочные поляны,,Новая Москва,Филимонковское,НАО,НАО,6) Н. Москва дальн.,55.55874,37.311388
4560,367,Красная стрела,,Москва,Красносельский,ЦАО,ЦАО,2) от СК до ~ТТК,55.784116,37.656002
4562,318,Митте,Mitte,Москва,Даниловский,ЮАО,ЮАО,2) от СК до ~ТТК,55.724131,37.644507
4563,216,Ред 7,Red 7,Москва,Красносельский,ЦАО,ЦАО,2) от СК до ~ТТК,55.771169,37.643676
4564,77,Домодедово Парк Новый квартал,,Московская область,Домодедово,Каширское шоссе,"Домодедово, городской округ",8) МО ср.,55.473072,37.702366
4566,285,Синатра,Sinatra,Москва,Пресненский,ЦАО,ЦАО,2) от СК до ~ТТК,55.76998,37.570869
4571,338,Акватория,Aquatoria,Москва,Левобережный,САО,САО,3) от ~ТТК до МКАД,55.869027,37.457094
4572,5,Дмитровский парк,,Москва,Дмитровский,САО,САО,3) от ~ТТК до МКАД,55.88862,37.52781
4573,368,Бартон,Barton,Московская область,Мытищи,Ярославское шоссе,Мытищинский район,7) МО ближ.,55.904527,37.614471
4574,14,Вайт Хамовники,White Hamovniki,Москва,Хамовники,ЦАО,ЦАО,2) от СК до ~ТТК,55.732706,37.579677
4575,14,Медный,,Москва,Якиманка,ЦАО,ЦАО,2) от СК до ~ТТК,55.72255,37.605571
4576,182,Полетград,,Московская область,Жуковский,Новорязанское шоссе,"Жуковский, городской округ",8) МО ср.,55.605908,38.075324
4577,369,Резиденция Горки-10,,Московская область,Горки-10,Рублевское шоссе,Одинцовский район,8) МО ср.,55.703653,37.01868
4578,341,Подлипки Город,,Московская область,Коломна,Новорязанское шоссе,"Коломна, городской округ",9) МО дальн.,55.096859,38.744962
4579,46,Камео,Cameo Moscow Private Villas,Москва,Тверской,ЦАО,ЦАО,2) от СК до ~ТТК,55.77609,37.60069
4581,370,Пущиноград,,Московская область,Пущино,Симферопольское шоссе,"Пущино, городской округ",9) МО дальн.,54.834929,37.60488
4583,371,Квартет Хаус,Quartet House,Москва,Басманный,ЦАО,ЦАО,1) внутри СК,55.76324,37.651825
4617,14,Бук,Book,Москва,Арбат,ЦАО,ЦАО,1) внутри СК,55.751908,37.592593
4618,237,Квартал Некрасовка,,Москва,Некрасовка,ЮВАО,ЮВАО,4) Москва за МКАД,55.709414,37.936638
4619,372,Первый Зеленоградский,,Московская область,Андреевка,Пятницкое шоссе,Солнечногорский район,8) МО ср.,55.98149,37.100754
4620,4,Рафинад,Миниполис Химки Свистуха,Московская область,Химки,Ленинградское шоссе,"Химки, городской округ",7) МО ближ.,55.958945,37.450254
4622,80,Южная Битца,,Московская область,Дрожжино,Симферопольское шоссе,Ленинский район,7) МО ближ.,55.555736,37.597218
4623,373,Дом с Атлантами,,Москва,Басманный,ЦАО,ЦАО,1) внутри СК,55.752409,37.64039
4624,374,Икша Парк,,Московская область,Икша,Дмитровское шоссе,Дмитровский район,9) МО дальн.,56.1722,37.50025
4625,375,Олимпийский (Чехов),,Московская область,Чехов,Симферопольское шоссе,"Чехов, городской округ",9) МО дальн.,55.15906,37.486519
4626,172,Дом на Барвихинской,,Москва,Кунцево,ЗАО,ЗАО,3) от ~ТТК до МКАД,55.715963,37.38897
4632,376,Пироговская Малая 14,,Москва,Хамовники,ЦАО,ЦАО,2) от СК до ~ТТК,55.728404,37.567462
4633,377,Сенеж,,Московская область,Солнечногорск,Ленинградское шоссе,Солнечногорский район,9) МО дальн.,56.191879,36.994816
4634,91,Спортивный,,Московская область,Дмитров,Дмитровское шоссе,Дмитровский район,9) МО дальн.,56.35698,37.57181
4635,173,Централ Парк ЗИЛ,Park Central,Москва,Даниловский,ЮАО,ЮАО,2) от СК до ~ТТК,55.6882,37.65581
4636,321,Данилов Дом,,Москва,Донской,ЮАО,ЮАО,2) от СК до ~ТТК,55.70927,37.61811
4637,10,Лаки 1905,Lucky 1905,Москва,Пресненский,ЦАО,ЦАО,2) от СК до ~ТТК,55.763059,37.555549
4639,79,Первомайский (Павловский Посад),,Московская область,Павловский Посад,Горьковское шоссе,"Павловский посад, городской округ",9) МО дальн.,55.780363,38.614441
4640,175,Долгоруковская 25,,Москва,Тверской,ЦАО,ЦАО,2) от СК до ~ТТК,55.776364,37.601606
4643,83,КутузовГрад 2,,Москва,Можайский,ЗАО,ЗАО,3) от ~ТТК до МКАД,55.717744,37.429578
4645,292,Лофт ФМ,Loft FM,Москва,Таганский,ЦАО,ЦАО,2) от СК до ~ТТК,55.736989,37.690784
4646,378,Артисан,Artisan,Москва,Арбат,ЦАО,ЦАО,1) внутри СК,55.748606,37.589734
4650,379,Дмитрослав,Дмитровские горизонты,Московская область,Дмитров,Дмитровское шоссе,Дмитровский район,9) МО дальн.,56.35434,37.514803
4651,3,Событие,,Москва,Раменки,ЗАО,ЗАО,3) от ~ТТК до МКАД,55.696709,37.473473
4652,380,Рогожский Вал 12,,Москва,Таганский,ЦАО,ЦАО,2) от СК до ~ТТК,55.741275,37.674138
4653,381,Сказочный лес,,Москва,Ярославский,СВАО,СВАО,3) от ~ТТК до МКАД,55.847897,37.712758
4655,12,Театральный квартал,,Москва,Щукино,СЗАО,СЗАО,3) от ~ТТК до МКАД,55.7915,37.47722
4668,83,Ривер Скай,River Sky,Москва,Даниловский,ЮАО,ЮАО,2) от СК до ~ТТК,55.718944,37.656667
4669,382,Аквилон Парк,Akvilon Park,Новая Москва,Сосенское,НАО,НАО,5) Н. Москва ближ.,55.57057,37.48614
4680,83,Одинград Семейный квартал,Odingrad Семейный квартал,Московская область,Одинцово,Минское шоссе,Одинцовский район,7) МО ближ.,55.67781,37.23484
